~VERSION INFORMATION
 VERS.                 2.0:   CWLS Log Ascii Standard    
 WRAP.                 YES:   Multiple Lines per Depth   
~WELL INFORMATION
#MNEM.UNIT              DATA                DESCRIPTION OF MNEMONIC  
#---------              ----                -----------------------  
 STRT  .FT         4544.0000                :Top Depth  
 STOP  .FT         5750.0000                :Bottom Depth  
 STEP  .FT             .5000                :Increment  
 NULL  .          -99999.000                :Null Value  
 COMP  .  GULF OIL CORPORATION              :Company   
 FLD   .  DEES NORTHEAST                    :Field  
 STAT  .  TEXAS                             :State  
 SRVC  .  SCHLUMBERGER                      :Service Company  
 WELL  .  B YATES 11                        :Well  
 UWI   .  422373031500                      :Unique Well ID  
~PARAMETER INFORMATION
#MNEM.UNIT        Value       Description                
#---------    -------------   -------------------------- 
 RUN   .                 1:   Run Number                 
 DATUM .FT        984.0000:   Datum                      
 AMST  .DEG.F      80.0000:   Annual Mean Surface Temp.  
 BHT   .DEG.F     127.0000:   Bottom Hole Temperature    
 TD    .FT       5750.0000:   Loggers Total Depth        
 BITSIZ.IN          7.8750:   Bit Size                   
 MW    .LB/USGAL    9.5000:   Mud Weight                 
 RM    .OHM-M       3.4200:   Mud Resistivity            
 RMMT  .DEG.F      78.0000:   Mud Resistivity Meas. Temp.
 RMF   .OHM-M       2.9000:   Mud Filtrate Resistivity   
 RMFMT .DEG.F      78.0000:   Mud Filtrate Res.Meas.Temp.
 SALFM .PPM      150000.00:   Formation Water Salinity   
~CURVE INFORMATION
#MNEM.UNIT       API Code     Curve Description          
#---------    -------------   -------------------------- 
 DEPTH .FT                    : Depth                                   
 CALI  .INS                   : Caliper                                 
 DLT   .US/FT                 : Borehole Compensated Sonic Travel Time  
 GR    .API                   : Gamma Ray                               
 RILD  .OHMM                  : Deep Induction Resistivity              
 RHOB  .G/CC                  : Formation Density Compensated           
 RILM  .OHMM                  : Medium Induction Resistivity            
 RLL8  .OHMM                  : Laterlog 8 Resistivity                 
 SP    .MV                    : Spontaneous Potential                   
~A Log Data Section - Number of Curves =     9
# ...
 4712.0000
     8.553000    90.029999   116.857002     4.349000     2.500000     4.621000
     9.213000   -18.453938                                                    
 4712.5000
     8.550000    87.582001   102.443001     4.294000     2.468000     4.463000
     8.458000   -18.802021                                                    
 4713.0000
     8.547000    77.268997    82.891998     4.635000     2.495000     4.803000
     7.961000   -18.763950                                                    
 4713.5000
     8.556000    67.195999    60.636002     5.004000     2.550000     5.437000
     7.617000   -18.855728                                                    
 4714.0000
     8.615000    57.945999    32.737000     5.402000     2.687000     6.155000
     9.298000   -18.948868                                                    
 4714.5000
     8.645000    51.727001    28.702000     6.785000     2.703000     8.397000
    11.349000   -18.527361                                                    
 4715.0000
     8.577000    53.807999    34.516998     8.521000     2.703000    10.507000
    50.088001   -18.106533                                                    
 4715.5000
     8.567000    55.889000    42.875000    10.259000     2.716000    12.137000
   103.690002   -17.850231                                                    
 4716.0000
     8.557000    61.055000    58.834999    13.943000     2.693000    14.020000
   214.654999   -16.893002                                                    
 4716.5000
     8.543000    61.692001    65.166000    18.100000     2.674000    16.150999
   104.169998   -16.579590                                                    
 4717.0000
     8.514000    62.328999    69.642998    19.372999     2.668000    17.542999
    50.553001   -16.399431                                                    
 4717.5000
     8.486000    61.551998    67.299004    20.736000     2.659000    18.881001
    31.410000   -16.218590                                                    
 4718.0000
     8.473000    60.125000    65.526001    21.871000     2.676000    19.445000
    27.066999   -16.506166                                                    
 4718.5000
     8.500000    58.698002    61.403000    20.547001     2.680000    20.025000
    35.919998   -17.064323                                                    
 4719.0000
     8.477000    57.360001    57.057999    20.099001     2.678000    20.472000
    39.959999   -17.789045                                                    
 4719.5000
     8.456000    56.785999    53.287998    21.792000     2.686000    20.927999
    44.453999   -18.186077                                                    
 4720.0000
     8.442000    55.006001    54.779999    23.627001     2.683000    22.073999
    51.164001   -18.415865                                                    
 4720.5000
     8.425000    56.532001    53.897999    27.444000     2.688000    24.511000
    58.886002   -18.808819                                                    
 4721.0000
     8.394000    55.259998    45.037998    31.878000     2.675000    29.837000
    68.461998   -19.582489                                                    
 4721.5000
     8.381000    53.987000    39.335999    36.555000     2.666000    32.828999
    53.325001   -20.851089                                                    
 4722.0000
     8.370000    53.257999    35.209000    41.917999     2.670000    36.120998
    69.862000   -22.173397                                                    
 4722.5000
     8.370000    53.352001    32.241001    47.497002     2.689000    47.410000
    91.528000   -23.220366                                                    
 4723.0000
     8.380000    53.446999    31.186001    52.212002     2.695000    52.549000
   132.177994   -24.267336                                                    
 4723.5000
     8.390000    53.050999    31.778000    57.394001     2.703000    58.243999
   141.218002   -24.391748                                                    
 4724.0000
     8.390000    52.584000    31.650999    63.324001     2.716000    69.994003
   136.876999   -24.890759                                                    
 4724.5000
     8.355000    52.396000    29.525000    69.865997     2.721000    84.112999
   132.667999   -25.389769                                                    
 4725.0000
     8.320000    52.208000    29.277000    78.441002     2.701000    97.792999
   144.373001   -26.437418                                                    
 4725.5000
     8.305000    52.020000    29.580000    93.574997     2.693000   106.223999
   156.244995   -26.996254                                                    
 4726.0000
     8.357000    52.227001    31.329000    96.723000     2.688000   112.245003
   164.949005   -26.901075                                                    
 4726.5000
     8.382000    52.435001    31.931000    92.382004     2.697000   110.404999
   174.139008   -27.514980                                                    
 4727.0000
     8.335000    52.553001    33.818001    91.790001     2.703000   108.596001
   186.391998   -27.935806                                                    
 4727.5000
     8.367000    52.671001    34.444000    91.203003     2.710000   105.450996
   167.860001   -28.356634                                                    
 4728.0000
     8.395000    52.789001    33.333000    93.581001     2.706000   105.259003
   152.007004   -29.458672                                                    
 4728.5000
     8.408000    52.870998    32.668999    96.019997     2.664000   105.067001
   143.328003   -30.724552                                                    
 4729.0000
     8.421000    52.952999    31.718000    99.616997     2.658000   107.806000
   150.528000   -31.885057                                                    
 4729.5000
     8.434000    53.053001    31.167999   102.212997     2.654000   109.706001
   158.089996   -32.169914                                                    
 4730.0000
     8.435000    53.153000    31.360001   104.877998     2.654000   111.639000
   166.031006   -32.946301                                                    
 4730.5000
     8.397000    53.099998    32.612999   110.823997     2.647000   117.968002
   175.764999   -33.065956                                                    
 4731.0000
     8.379000    53.046001    34.048000   120.821999     2.648000   122.723000
   186.070999   -33.022446                                                    
 4731.5000
     8.422000    52.993000    35.660000   131.722000     2.642000   127.669998
   197.343002   -32.872879                                                    
 4732.0000
     8.455000    52.700001    35.949001   140.087006     2.655000   144.931000
   187.104996   -32.565586                                                    
 4732.5000
     8.460000    52.405998    36.014999   148.983002     2.670000   157.138000
   180.686996   -31.929247                                                    
 4733.0000
     8.465000    52.007000    35.376999   159.173996     2.682000   170.373001
   211.429001   -31.585922                                                    
 4733.5000
     8.469000    51.608002    34.990002   171.317001     2.679000   180.526993
   247.401993   -31.241917                                                    
 4734.0000
     8.474000    51.209000    35.513000   186.772003     2.702000   191.287003
   285.535004   -30.285370                                                    
 4734.5000
     8.479000    51.356998    36.025002   201.389999     2.712000   203.621994
   311.579987   -29.699339                                                    
 4735.0000
     8.484000    51.505001    35.388000   179.378006     2.697000   211.636002
   340.002014   -29.113306                                                    
 4735.5000
     8.489000    51.813999    35.183998   158.018997     2.682000   201.766006
   328.342010   -27.879379                                                    
