~VERSION INFORMATION
 VERS.                 2.0:   CWLS Log Ascii Standard    
 WRAP.                 YES:   Multiple Lines per Depth   
~WELL INFORMATION
#MNEM.UNIT              DATA                DESCRIPTION OF MNEMONIC  
#---------              ----                -----------------------  
 STRT  .FT         4544.0000                :Top Depth  
 STOP  .FT         5750.0000                :Bottom Depth  
 STEP  .FT             .5000                :Increment  
 NULL  .          -99999.000                :Null Value  
 COMP  .  GULF OIL CORPORATION              :Company   
 FLD   .  DEES NORTHEAST                    :Field  
 STAT  .  TEXAS                             :State  
 SRVC  .  SCHLUMBERGER                      :Service Company  
 WELL  .  B YATES 11                        :Well  
 UWI   .  422373031500                      :Unique Well ID  
~PARAMETER INFORMATION
#MNEM.UNIT        Value       Description                
#---------    -------------   -------------------------- 
 RUN   .                 1:   Run Number                 
 DATUM .FT        984.0000:   Datum                      
 AMST  .DEG.F      80.0000:   Annual Mean Surface Temp.  
 BHT   .DEG.F     127.0000:   Bottom Hole Temperature    
 TD    .FT       5750.0000:   Loggers Total Depth        
 BITSIZ.IN          7.8750:   Bit Size                   
 MW    .LB/USGAL    9.5000:   Mud Weight                 
 RM    .OHM-M       3.4200:   Mud Resistivity            
 RMMT  .DEG.F      78.0000:   Mud Resistivity Meas. Temp.
 RMF   .OHM-M       2.9000:   Mud Filtrate Resistivity   
 RMFMT .DEG.F      78.0000:   Mud Filtrate Res.Meas.Temp.
 SALFM .PPM      150000.00:   Formation Water Salinity   
~CURVE INFORMATION
#MNEM.UNIT       API Code     Curve Description          
#---------    -------------   -------------------------- 
 DEPTH .FT                    : Depth                                   
 CALI  .INS                   : Caliper                                 
 DLT   .US/FT                 : Borehole Compensated Sonic Travel Time  
 GR    .API                   : Gamma Ray                               
 RILD  .OHMM                  : Deep Induction Resistivity              
 RHOB  .G/CC                  : Formation Density Compensated           
 RILM  .OHMM                  : Medium Induction Resistivity            
 RLL8  .OHMM                  : Laterlog 8 Resistivity                 
 SP    .MV                    : Spontaneous Potential                   
~A Log Data Section - Number of Curves =     9
# ...
 5336.0000
     8.406000    59.474998    42.036999    22.750999     2.703000    23.024000
    46.658001   -12.478055                                                    
 5336.5000
     8.369000    58.875999    43.935001    21.857000     2.692000    22.938000
    47.695000   -12.370639                                                    
 5337.0000
     8.445000    58.277000    45.848999    20.997999     2.707000    22.851999
    48.756001   -12.316931                                                    
 5337.5000
     8.428000    58.334999    49.282001    20.114000     2.701000    22.767000
    50.203999   -12.263902                                                    
 5338.0000
     8.411000    57.926998    49.612999    19.268000     2.718000    22.267000
    49.695999   -12.208834                                                    
 5338.5000
     8.395000    58.056999    49.945000    18.457001     2.702000    21.459999
    49.193001   -12.373358                                                    
 5339.0000
     8.378000    58.188000    52.672001    17.952999     2.705000    20.532000
    51.786999   -12.755434                                                    
 5339.5000
     8.368000    58.318001    54.931000    17.462999     2.707000    20.046000
    42.296001   -13.137509                                                    
 5340.0000
     8.358000    59.855000    54.674999    17.159000     2.695000    19.570999
    38.719002   -13.247645                                                    
 5340.5000
     8.348000    60.470001    54.380001    16.860001     2.699000    18.382000
    36.703999   -14.009078                                                    
 5341.0000
     8.338000    61.084000    55.174000    17.631001     2.691000    19.139999
    34.223999   -14.281697                                                    
 5341.5000
     8.354000    61.285999    52.090000    18.436001     2.704000    19.910000
    31.912001   -14.661734                                                    
 5342.0000
     8.371000    59.768002    48.876999    19.278999     2.685000    20.712000
    40.790001   -14.699125                                                    
 5342.5000
     8.346000    58.249001    44.680000    20.787001     2.700000    22.746000
    52.137001   -14.737197                                                    
 5343.0000
     8.320000    56.730999    41.187000    22.413000     2.718000    24.167000
    71.523003   -14.773909                                                    
 5343.5000
     8.324000    55.926998    41.741001    24.166000     2.745000    25.677000
    64.874001   -14.338125                                                    
 5344.0000
     8.377000    56.290001    42.519001    27.736000     2.721000    27.941999
    62.297001   -14.366679                                                    
 5344.5000
     8.434000    56.653000    43.624001    30.403999     2.725000    30.740999
    59.823002   -14.395912                                                    
 5345.0000
     8.428000    56.293999    42.669998    29.848000     2.716000    31.024000
    64.147003   -14.776628                                                    
 5345.5000
     8.417000    55.935001    41.561001    26.097000     2.729000    28.348000
    68.785004   -15.211053                                                    
 5346.0000
     8.406000    54.859001    46.348000    22.816999     2.727000    21.670000
    77.225998   -15.892262                                                    
 5346.5000
     8.410000    57.688000    51.655998    18.229000     2.724000    17.030001
    56.245998   -16.572792                                                    
 5347.0000
     8.462000    60.516998    58.789001    10.595000     2.685000    13.961000
    40.965000   -17.661232                                                    
 5347.5000
     8.518000    65.246002    67.623001     7.729000     2.685000     9.162000
    29.836000   -18.152084                                                    
 5348.0000
     8.877000    70.441002    76.611000     5.638000     2.689000     5.276000
    26.815001   -18.642935                                                    
 5348.5000
     8.922000    75.637001   101.602997     4.270000     2.677000     4.378000
    12.849000   -19.512465                                                    
 5349.0000
     8.925000    87.519997   116.732002     3.271000     2.615000     3.632000
     5.837000   -19.540339                                                    
 5349.5000
     8.928000    95.436996   120.348000     2.942000     2.496000     3.147000
     4.777000   -19.568211                                                    
 5350.0000
     8.931000    96.356003   122.611000     2.647000     2.485000     2.782000
     4.776000   -19.296272                                                    
 5350.5000
     8.928000    97.274002   121.704002     2.521000     2.492000     2.637000
     4.776000   -19.025011                                                    
 5351.0000
     8.924000    97.094002   121.774002     2.401000     2.493000     2.500000
     4.776000   -18.791143                                                    
 5351.5000
     8.920000    96.913002   122.069000     2.234000     2.509000     2.488000
     4.569000   -18.556595                                                    
 5352.0000
     8.865000    94.277000   119.879997     2.214000     2.529000     2.477000
     4.371000   -18.322727                                                    
 5352.5000
     8.800000    91.640999   120.290001     2.313000     2.557000     2.449000
     4.216000   -17.942009                                                    
 5353.0000
     8.730000    94.203003   118.431999     2.418000     2.551000     2.545000
     4.066000   -17.561974                                                    
 5353.5000
     8.691000    96.764000   116.997002     2.576000     2.539000     2.755000
     3.921000   -16.637379                                                    
 5354.0000
     8.521000    95.360001   115.744003     2.744000     2.557000     2.981000
     3.849000   -15.750854                                                    
 5354.5000
     8.487000    93.955002   111.487999     3.008000     2.574000     3.226000
     4.463000   -14.864329                                                    
 5355.0000
     8.487000    87.017998   101.364998     3.298000     2.534000     3.504000
     5.175000   -13.977125                                                    
 5355.5000
     8.488000    80.082001    97.086998     3.566000     2.614000     3.806000
     6.299000   -12.671812                                                    
 5356.0000
     8.488000    78.916000    94.374001     3.855000     2.645000     4.074000
     7.669000   -12.265262                                                    
 5356.5000
     8.477000    77.750999    96.195000     4.474000     2.658000     4.360000
    10.405000   -11.859391                                                    
 5357.0000
     8.463000    79.683998    97.438004     5.192000     2.648000     4.891000
     8.065000   -12.076263                                                    
 5357.5000
     8.450000    81.617996    92.874001     5.992000     2.637000     5.486000
     6.251000   -12.185719                                                    
 5358.0000
     8.411000    78.809998    86.911003     6.916000     2.655000     6.332000
     8.497000   -12.295856                                                    
 5358.5000
     8.405000    76.001999    77.983002     7.609000     2.681000     7.308000
    11.551000   -13.001539                                                    
 5359.0000
     8.378000    66.383003    74.704002     8.372000     2.697000     8.814000
    18.871000   -13.465877                                                    
 5359.5000
     8.342000    60.111000    75.195000     9.556000     2.699000    10.929000
    30.829000   -13.930215                                                    
