~VERSION INFORMATION
 VERS.                 2.0:   CWLS Log Ascii Standard    
 WRAP.                 YES:   Multiple Lines per Depth   
~WELL INFORMATION
#MNEM.UNIT              DATA                DESCRIPTION OF MNEMONIC  
#---------              ----                -----------------------  
 STRT  .FT         4544.0000                :Top Depth  
 STOP  .FT         5750.0000                :Bottom Depth  
 STEP  .FT             .5000                :Increment  
 NULL  .          -99999.000                :Null Value  
 COMP  .  GULF OIL CORPORATION              :Company   
 FLD   .  DEES NORTHEAST                    :Field  
 STAT  .  TEXAS                             :State  
 SRVC  .  SCHLUMBERGER                      :Service Company  
 WELL  .  B YATES 11                        :Well  
 UWI   .  422373031500                      :Unique Well ID  
~PARAMETER INFORMATION
#MNEM.UNIT        Value       Description                
#---------    -------------   -------------------------- 
 RUN   .                 1:   Run Number                 
 DATUM .FT        984.0000:   Datum                      
 AMST  .DEG.F      80.0000:   Annual Mean Surface Temp.  
 BHT   .DEG.F     127.0000:   Bottom Hole Temperature    
 TD    .FT       5750.0000:   Loggers Total Depth        
 BITSIZ.IN          7.8750:   Bit Size                   
 MW    .LB/USGAL    9.5000:   Mud Weight                 
 RM    .OHM-M       3.4200:   Mud Resistivity            
 RMMT  .DEG.F      78.0000:   Mud Resistivity Meas. Temp.
 RMF   .OHM-M       2.9000:   Mud Filtrate Resistivity   
 RMFMT .DEG.F      78.0000:   Mud Filtrate Res.Meas.Temp.
 SALFM .PPM      150000.00:   Formation Water Salinity   
~CURVE INFORMATION
#MNEM.UNIT       API Code     Curve Description          
#---------    -------------   -------------------------- 
 DEPTH .FT                    : Depth                                   
 CALI  .INS                   : Caliper                                 
 DLT   .US/FT                 : Borehole Compensated Sonic Travel Time  
 GR    .API                   : Gamma Ray                               
 RILD  .OHMM                  : Deep Induction Resistivity              
 RHOB  .G/CC                  : Formation Density Compensated           
 RILM  .OHMM                  : Medium Induction Resistivity            
 RLL8  .OHMM                  : Laterlog 8 Resistivity                 
 SP    .MV                    : Spontaneous Potential                   
~A Log Data Section - Number of Curves =     9
# ...
 4928.0000
     8.622000    80.757004   122.178001     6.038000     2.597000     6.345000
     8.485000   -18.275137                                                    
 4928.5000
     8.610000    77.425003   119.967003     6.084000     2.593000     6.487000
     8.315000   -18.118092                                                    
 4929.0000
     8.603000    71.639000   115.422997     6.096000     2.591000     6.632000
     9.538000   -17.853630                                                    
 4929.5000
     8.601000    65.852997   111.141998     6.120000     2.594000     6.808000
    10.941000   -17.698624                                                    
 4930.0000
     8.576000    74.139000   111.378998     6.077000     2.629000     6.636000
    12.381000   -17.784966                                                    
 4930.5000
     8.531000    75.921997   115.452003     6.062000     2.655000     6.469000
    10.776000   -17.871986                                                    
 4931.0000
     8.542000    77.705002   119.709999     6.048000     2.636000     6.387000
     9.379000   -18.369637                                                    
 4931.5000
     8.561000    79.487000   122.566002     6.033000     2.622000     6.307000
     8.401000   -18.757151                                                    
 4932.0000
     8.598000    79.069000   123.998001     5.871000     2.614000     6.103000
     8.529000   -19.034529                                                    
 4932.5000
     8.632000    79.589996   124.928001     5.681000     2.608000     6.005000
     8.744000   -19.312588                                                    
 4933.0000
     8.615000    80.110001   126.583000     5.767000     2.633000     6.062000
     8.965000   -19.754490                                                    
 4933.5000
     8.604000    80.630997   130.078995     5.952000     2.628000     6.537000
     7.858000   -20.740274                                                    
 4934.0000
     8.598000    79.018997   125.389000     6.142000     2.611000     7.049000
     8.085000   -21.725376                                                    
 4934.5000
     8.592000    66.527000   112.472000     6.760000     2.606000     7.983000
     8.319000   -22.929390                                                    
 4935.0000
     8.577000    70.707001   102.003998     7.920000     2.611000     9.040000
    11.848000   -23.643234                                                    
 4935.5000
     8.552000    74.886002    93.819000     9.192000     2.610000    10.302000
    14.188000   -25.009052                                                    
 4936.0000
     8.530000    66.896004    85.630997    10.419000     2.591000    11.196000
    25.749001   -25.340139                                                    
 4936.5000
     8.511000    64.518997    77.443001    11.811000     2.597000    12.317000
    46.733002   -25.671906                                                    
 4937.0000
     8.491000    63.193001    69.255997    12.973000     2.611000    13.264000
    51.617001   -26.060101                                                    
 4937.5000
     8.464000    65.258003    68.265999    14.761000     2.609000    14.813000
    33.761002   -25.959482                                                    
 4938.0000
     8.438000    58.426998    73.364998    15.714000     2.616000    15.541000
    26.489000   -26.128765                                                    
 4938.5000
     8.417000    51.597000    76.420998    16.729000     2.618000    16.302999
    20.783001   -26.296688                                                    
 4939.0000
     8.402000    60.903999    75.913002    16.735001     2.610000    17.077000
    24.573999   -26.576786                                                    
 4939.5000
     8.396000    70.211998    74.547997    16.177999     2.597000    16.492001
    24.872000   -26.826971                                                    
 4940.0000
     8.394000    69.960999    74.480003    15.639000     2.581000    16.316000
    25.174999   -27.077835                                                    
 4940.5000
     8.395000    70.414001    73.768997    16.197001     2.581000    17.202999
    26.223000   -26.977898                                                    
 4941.0000
     8.395000    69.064003    73.589996    16.775000     2.576000    18.139000
    25.006001   -26.603981                                                    
 4941.5000
     8.396000    66.644997    74.538002    18.295000     2.583000    19.125000
    23.844999   -26.582224                                                    
 4942.0000
     8.396000    64.225998    72.082001    18.330999     2.587000    20.701000
    29.572001   -26.560471                                                    
 4942.5000
     8.397000    62.959999    66.279999    17.969000     2.561000    22.003000
    36.674000   -26.406143                                                    
 4943.0000
     8.398000    61.694000    60.792000    17.615000     2.605000    20.862000
    51.924999   -26.194710                                                    
 4943.5000
     8.398000    63.699001    58.383999    17.267000     2.663000    19.778999
    42.901001   -25.982597                                                    
 4944.0000
     8.399000    66.278000    61.018002    16.778999     2.665000    18.687000
    40.757000   -25.310226                                                    
 4944.5000
     8.399000    68.857002    65.931999    16.306000     2.667000    17.653999
    38.719002   -24.637854                                                    
 4945.0000
     8.399000    69.973000    72.905998    15.845000     2.660000    16.497999
    29.009001   -23.776484                                                    
 4945.5000
     8.401000    71.088997    80.402000    15.544000     2.646000    16.111000
    22.479000   -23.456955                                                    
 4946.0000
     8.405000    69.625000    86.334000    15.248000     2.626000    16.174999
    20.882000   -23.356337                                                    
 4946.5000
     8.409000    68.162003    84.587997    14.633000     2.594000    16.076000
    25.719000   -23.144222                                                    
 4947.0000
     8.428000    65.737000    77.670998    14.042000     2.581000    15.977000
    27.455000   -22.932791                                                    
 4947.5000
     8.463000    65.772003    73.595001    13.417000     2.583000    14.767000
    29.309999   -22.505163                                                    
 4948.0000
     8.485000    65.807999    69.654999    12.983000     2.603000    14.053000
    32.553001   -21.914373                                                    
 4948.5000
     8.494000    68.696999    71.021004    12.865000     2.647000    13.401000
    27.389999   -21.458195                                                    
 4949.0000
     8.502000    69.526001    77.850998    12.749000     2.655000    13.206000
    23.047001   -21.002016                                                    
 4949.5000
     8.531000    70.356003    85.240997    12.385000     2.619000    13.014000
    18.865000   -19.489349                                                    
 4950.0000
     8.580000    69.513000    93.209999    11.829000     2.603000    11.769000
    15.442000   -19.224888                                                    
 4950.5000
     8.605000    68.670998    92.025002    10.537000     2.619000    11.127000
    17.504999   -19.122910                                                    
 4951.0000
     8.647000    69.213997    84.752998     9.938000     2.623000    10.521000
    19.841999   -19.019573                                                    
 4951.5000
     8.732000    69.757004    81.146004     9.372000     2.623000     9.236000
    17.954000   -18.916914                                                    
