~VERSION INFORMATION
 VERS.                 2.0:   CWLS Log Ascii Standard    
 WRAP.                 YES:   Multiple Lines per Depth   
~WELL INFORMATION
#MNEM.UNIT              DATA                DESCRIPTION OF MNEMONIC  
#---------              ----                -----------------------  
 STRT  .FT         4544.0000                :Top Depth  
 STOP  .FT         5750.0000                :Bottom Depth  
 STEP  .FT             .5000                :Increment  
 NULL  .          -99999.000                :Null Value  
 COMP  .  GULF OIL CORPORATION              :Company   
 FLD   .  DEES NORTHEAST                    :Field  
 STAT  .  TEXAS                             :State  
 SRVC  .  SCHLUMBERGER                      :Service Company  
 WELL  .  B YATES 11                        :Well  
 UWI   .  422373031500                      :Unique Well ID  
~PARAMETER INFORMATION
#MNEM.UNIT        Value       Description                
#---------    -------------   -------------------------- 
 RUN   .                 1:   Run Number                 
 DATUM .FT        984.0000:   Datum                      
 AMST  .DEG.F      80.0000:   Annual Mean Surface Temp.  
 BHT   .DEG.F     127.0000:   Bottom Hole Temperature    
 TD    .FT       5750.0000:   Loggers Total Depth        
 BITSIZ.IN          7.8750:   Bit Size                   
 MW    .LB/USGAL    9.5000:   Mud Weight                 
 RM    .OHM-M       3.4200:   Mud Resistivity            
 RMMT  .DEG.F      78.0000:   Mud Resistivity Meas. Temp.
 RMF   .OHM-M       2.9000:   Mud Filtrate Resistivity   
 RMFMT .DEG.F      78.0000:   Mud Filtrate Res.Meas.Temp.
 SALFM .PPM      150000.00:   Formation Water Salinity   
~CURVE INFORMATION
#MNEM.UNIT       API Code     Curve Description          
#---------    -------------   -------------------------- 
 DEPTH .FT                    : Depth                                   
 CALI  .INS                   : Caliper                                 
 DLT   .US/FT                 : Borehole Compensated Sonic Travel Time  
 GR    .API                   : Gamma Ray                               
 RILD  .OHMM                  : Deep Induction Resistivity              
 RHOB  .G/CC                  : Formation Density Compensated           
 RILM  .OHMM                  : Medium Induction Resistivity            
 RLL8  .OHMM                  : Laterlog 8 Resistivity                 
 SP    .MV                    : Spontaneous Potential                   
~A Log Data Section - Number of Curves =     9
 4544.0000
     9.388000    89.015999   132.179001     3.833000     2.585000     4.021000
     6.702000   -23.257757                                                    
 4544.5000
     9.242000    88.656998   135.354004     3.886000     2.551000     4.088000
     6.343000   -22.968143                                                    
 4545.0000
     9.165000    88.391998   138.278000     3.940000     2.512000     4.156000
     6.002000   -22.678526                                                    
 4545.5000
     9.148000    86.741997   137.011993     4.035000     2.572000     4.179000
     6.331000   -22.096573                                                    
 4546.0000
     9.212000    85.092003   134.904007     4.084000     2.548000     4.175000
     6.478000   -22.132607                                                    
 4546.5000
     9.290000    84.596001   130.740997     4.133000     2.502000     4.171000
     6.629000   -22.169998                                                    
 4547.0000
     9.680000    84.098999   128.375000     4.179000     2.557000     4.367000
     5.958000   -21.692064                                                    
 4547.5000
     9.808000    84.575996   125.490997     4.210000     2.609000     4.590000
     6.520000   -21.214809                                                    
 4548.0000
     9.725000    85.052002   126.494003     4.110000     2.658000     4.727000
     7.135000   -20.197752                                                    
 4548.5000
     9.614000    86.406998   128.289001     4.095000     2.667000     4.552000
     8.295000   -19.993799                                                    
 4549.0000
     9.307000    87.762001   127.763000     4.080000     2.675000     4.383000
     7.375000   -20.985020                                                    
 4549.5000
     9.390000    87.091003   129.242996     4.076000     2.641000     4.141000
     6.556000   -21.267157                                                    
 4550.0000
     9.554000    87.473000   131.188995     4.073000     2.588000     4.118000
     5.871000   -21.497627                                                    
 4550.5000
     9.651000    87.024002   130.373993     4.002000     2.572000     4.061000
     5.258000   -21.238604                                                    
 4551.0000
     9.535000    86.574997   131.934006     3.933000     2.592000     4.006000
     5.465000   -20.978222                                                    
 4551.5000
     9.516000    87.086998   127.078003     3.861000     2.617000     4.035000
     5.680000   -21.016972                                                    
 4552.0000
     9.522000    86.810997   125.568001     3.791000     2.668000     4.065000
     6.002000   -21.055723                                                    
 4552.5000
     9.528000    87.037003   125.714996     3.756000     2.657000     4.043000
     6.058000   -21.619999                                                    
 4553.0000
     9.557000    86.533997   126.010002     3.812000     2.650000     4.021000
     6.114000   -21.593485                                                    
 4553.5000
     9.590000    87.064003   128.826004     3.847000     2.656000     4.043000
     5.975000   -21.568331                                                    
 4554.0000
     9.578000    87.595001   132.091995     3.883000     2.663000     4.065000
     5.839000   -21.543177                                                    
 4554.5000
     9.620000    87.570000   134.923004     3.883000     2.620000     4.058000
     5.920000   -21.282795                                                    
 4555.0000
     9.584000    87.396004   134.912994     3.883000     2.627000     4.088000
     6.002000   -21.023092                                                    
 4555.5000
     9.533000    87.222000   135.910995     3.868000     2.621000     4.084000
     6.058000   -20.762028                                                    
 4556.0000
     9.528000    87.100998   136.113998     3.895000     2.630000     4.080000
     6.002000   -20.447937                                                    
 4556.5000
     9.531000    87.170998   136.138000     3.921000     2.629000     4.118000
     5.948000   -20.133167                                                    
 4557.0000
     9.447000    86.262001   138.192001     3.947000     2.625000     4.156000
     6.058000   -19.819077                                                    
 4557.5000
     9.427000    86.362999   140.225006     3.987000     2.643000     4.233000
     6.182000   -19.186815                                                    
 4558.0000
     9.420000    86.462997   140.110001     4.028000     2.660000     4.249000
     6.308000   -19.224209                                                    
 4558.5000
     9.374000    86.198997   139.653000     4.065000     2.637000     4.264000
     6.250000   -19.262280                                                    
 4559.0000
     9.310000    86.197998   138.139008     4.080000     2.623000     4.311000
     6.378000   -19.110672                                                    
 4559.5000
     9.358000    86.196999   136.451004     4.125000     2.614000     4.327000
     6.508000   -19.122910                                                    
 4560.0000
     9.424000    86.721001   134.397995     4.171000     2.655000     4.343000
     6.593000   -19.356779                                                    
 4560.5000
     9.435000    86.324997   133.481003     4.183000     2.674000     4.383000
     6.678000   -19.720499                                                    
 4561.0000
     9.436000    86.372002   134.468002     4.194000     2.649000     4.387000
     6.472000   -20.084219                                                    
 4561.5000
     9.432000    86.908997   135.723007     4.241000     2.617000     4.391000
     6.520000   -21.189653                                                    
 4562.0000
     9.427000    86.226997   135.026001     4.280000     2.636000     4.391000
     6.568000   -21.716537                                                    
 4562.5000
     9.423000    85.544998   134.031006     4.311000     2.641000     4.391000
     6.366000   -22.243422                                                    
 4563.0000
     9.418000    85.149002   134.311005     4.343000     2.643000     4.514000
     6.437000   -22.801579                                                    
 4563.5000
     9.414000    85.584000   132.636993     4.457000     2.660000     4.559000
     6.508000   -23.030008                                                    
 4564.0000
     9.474000    86.018997   131.223999     4.498000     2.673000     4.604000
     6.580000   -23.259119                                                    
 4564.5000
     9.545000    85.766998   133.960007     4.539000     2.642000     4.649000
     7.174000   -23.381491                                                    
 4565.0000
     9.549000    86.471001   137.285995     4.548000     2.651000     4.744000
     7.395000   -22.931431                                                    
 4565.5000
     9.544000    86.181999   139.639999     4.552000     2.666000     4.832000
     7.623000   -22.482050                                                    
 4566.0000
     9.467000    86.134003   140.798004     4.556000     2.663000     4.788000
     7.321000   -22.275375                                                    
 4566.5000
     9.455000    86.502998   138.548004     4.548000     2.664000     4.744000
     7.031000   -22.068701                                                    
 4567.0000
     9.454000    86.191002   138.369003     4.481000     2.659000     4.632000
     6.771000   -21.862026                                                    
 4567.5000
     9.508000    86.475998   137.171005     4.408000     2.653000     4.548000
     6.520000   -21.390209                                                    
