~VERSION INFORMATION
 VERS.                 2.0:   CWLS Log Ascii Standard    
 WRAP.                 YES:   Multiple Lines per Depth   
~WELL INFORMATION
#MNEM.UNIT              DATA                DESCRIPTION OF MNEMONIC  
#---------              ----                -----------------------  
 STRT  .FT         4544.0000                :Top Depth  
 STOP  .FT         5750.0000                :Bottom Depth  
 STEP  .FT             .5000                :Increment  
 NULL  .          -99999.000                :Null Value  
 COMP  .  GULF OIL CORPORATION              :Company   
 FLD   .  DEES NORTHEAST                    :Field  
 STAT  .  TEXAS                             :State  
 SRVC  .  SCHLUMBERGER                      :Service Company  
 WELL  .  B YATES 11                        :Well  
 UWI   .  422373031500                      :Unique Well ID  
~PARAMETER INFORMATION
#MNEM.UNIT        Value       Description                
#---------    -------------   -------------------------- 
 RUN   .                 1:   Run Number                 
 DATUM .FT        984.0000:   Datum                      
 AMST  .DEG.F      80.0000:   Annual Mean Surface Temp.  
 BHT   .DEG.F     127.0000:   Bottom Hole Temperature    
 TD    .FT       5750.0000:   Loggers Total Depth        
 BITSIZ.IN          7.8750:   Bit Size                   
 MW    .LB/USGAL    9.5000:   Mud Weight                 
 RM    .OHM-M       3.4200:   Mud Resistivity            
 RMMT  .DEG.F      78.0000:   Mud Resistivity Meas. Temp.
 RMF   .OHM-M       2.9000:   Mud Filtrate Resistivity   
 RMFMT .DEG.F      78.0000:   Mud Filtrate Res.Meas.Temp.
 SALFM .PPM      150000.00:   Formation Water Salinity   
~CURVE INFORMATION
#MNEM.UNIT       API Code     Curve Description          
#---------    -------------   -------------------------- 
 DEPTH .FT                    : Depth                                   
 CALI  .INS                   : Caliper                                 
 DLT   .US/FT                 : Borehole Compensated Sonic Travel Time  
 GR    .API                   : Gamma Ray                               
 RILD  .OHMM                  : Deep Induction Resistivity              
 RHOB  .G/CC                  : Formation Density Compensated           
 RILM  .OHMM                  : Medium Induction Resistivity            
 RLL8  .OHMM                  : Laterlog 8 Resistivity                 
 SP    .MV                    : Spontaneous Potential                   
~A Log Data Section - Number of Curves =     9
# ...
 4856.0000
     8.703000    77.264000   126.619003     6.232000     2.636000     6.490000
     8.821000   -13.678671                                                    
 4856.5000
     8.635000    76.478996   121.424004     6.396000     2.635000     6.617000
     8.182000   -13.563775                                                    
 4857.0000
     8.595000    75.694000   116.542999     6.402000     2.618000     6.746000
     8.783000   -13.448201                                                    
 4857.5000
     8.558000    77.184998   121.583000     6.409000     2.622000     6.860000
     9.428000   -13.333306                                                    
 4858.0000
     8.591000    78.677002   127.308998     6.281000     2.615000     6.565000
    11.066000   -13.399932                                                    
 4858.5000
     8.599000    80.751999   132.774994     6.225000     2.635000     6.505000
    10.179000   -13.463838                                                    
 4859.0000
     8.602000    81.072998   139.847000     6.146000     2.666000     6.446000
     9.363000   -13.527063                                                    
 4859.5000
     8.605000    80.427002   137.113007     6.068000     2.662000     6.306000
     8.684000   -13.651477                                                    
 4860.0000
     8.651000    79.625999   135.800003     5.991000     2.651000     6.227000
     8.159000   -13.579412                                                    
 4860.5000
     8.642000    78.824997   135.384003     5.733000     2.671000     6.204000
     8.071000   -13.507348                                                    
 4861.0000
     8.614000    79.320000   132.619003     5.661000     2.629000     6.240000
     8.704000   -13.194617                                                    
 4861.5000
     8.591000    79.815002   131.634995     5.589000     2.622000     6.043000
     9.386000   -13.043691                                                    
 4862.0000
     8.570000    81.836998   131.686005     5.655000     2.638000     5.852000
    10.122000   -13.380217                                                    
 4862.5000
     8.550000    83.859001   131.927994     5.722000     2.655000     5.799000
     9.138000   -13.659635                                                    
 4863.0000
     8.566000    82.962997   134.302002     5.789000     2.684000     5.951000
     8.251000   -14.328608                                                    
 4863.5000
     8.604000    82.067001   132.653000     6.198000     2.685000     6.430000
     7.449000   -14.393192                                                    
 4864.0000
     8.621000    76.012001   127.611000     6.635000     2.664000     7.037000
     8.514000   -14.514206                                                    
 4864.5000
     8.545000    73.861000   119.786003     6.945000     2.632000     7.729000
     9.732000   -14.576753                                                    
 4865.0000
     8.406000    71.710999   109.671997     7.269000     2.626000     8.259000
    11.124000   -14.639978                                                    
 4865.5000
     8.414000    73.375999    99.567001     7.608000     2.638000     8.745000
    14.026000   -15.037011                                                    
 4866.0000
     8.498000    75.040001    98.139999     7.963000     2.635000     8.974000
    17.684000   -14.941832                                                    
 4866.5000
     8.557000    74.059998   104.716003     8.446000     2.652000     9.260000
    20.264000   -15.005738                                                    
 4867.0000
     8.627000    72.148003   108.892998     8.959000     2.692000     9.652000
    17.548000   -15.069644                                                    
 4867.5000
     8.575000    70.524002   109.021004     9.914000     2.695000    10.061000
    15.196000   -15.189978                                                    
 4868.0000
     8.511000    68.899002   102.722000    10.211000     2.639000    10.672000
    13.159000   -15.206294                                                    
 4868.5000
     8.512000    67.917999    96.473000    10.100000     2.605000    11.032000
    18.157000   -15.269519                                                    
 4869.0000
     8.504000    67.654999    90.228996     9.990000     2.650000    11.095000
    20.577000   -15.332746                                                    
 4869.5000
     8.476000    67.390999    86.738998    10.122000     2.657000    11.069000
    23.319000   -15.180460                                                    
 4870.0000
     8.456000    53.312000    89.892998    10.225000     2.665000    11.042000
    20.886000   -14.649497                                                    
 4870.5000
     8.461000    62.236000    90.763000    10.330000     2.674000    11.016000
    21.277000   -13.903021                                                    
 4871.0000
     8.475000    71.160004    91.138000    10.322000     2.675000    10.582000
    19.023001   -13.535222                                                    
 4871.5000
     8.511000    68.531998    94.611000    10.313000     2.685000    10.399000
    17.007000   -13.325829                                                    
 4872.0000
     8.484000    65.904999    98.582001     9.699000     2.660000    10.220000
    15.373000   -13.116434                                                    
 4872.5000
     8.465000    74.045998   104.530998     9.120000     2.626000     9.393000
    16.038000   -13.019216                                                    
 4873.0000
     8.497000    75.655998   102.166000     8.569000     2.647000     8.664000
    16.733000   -12.980464                                                    
 4873.5000
     8.536000    77.266998   108.150002     8.050000     2.665000     8.170000
    13.746000   -13.372738                                                    
 4874.0000
     8.549000    76.214996   114.353996     7.529000     2.654000     7.592000
    12.633000   -13.708584                                                    
 4874.5000
     8.589000    75.163002   128.195999     7.041000     2.642000     7.139000
    11.609000   -13.881946                                                    
 4875.0000
     8.622000    82.779999   127.999001     6.518000     2.668000     6.713000
    10.285000   -14.330647                                                    
 4875.5000
     8.729000    83.936996   127.813004     6.035000     2.657000     6.284000
     9.495000   -14.610065                                                    
 4876.0000
     8.816000    83.559998   132.720001     5.770000     2.664000     5.904000
     8.766000   -15.002338                                                    
 4876.5000
     8.607000    83.182999   137.257996     5.516000     2.642000     5.608000
     7.499000   -14.854131                                                    
 4877.0000
     8.437000    80.638000   137.166000     5.357000     2.605000     5.487000
     7.702000   -14.650856                                                    
 4877.5000
     8.591000    72.517998   135.449005     5.265000     2.621000     5.482000
     7.911000   -14.468656                                                    
 4878.0000
     8.725000    79.717003   134.248993     5.174000     2.638000     5.478000
     7.854000   -14.286456                                                    
 4878.5000
     8.761000    70.832001   134.804993     5.218000     2.657000     5.478000
     7.914000   -14.190598                                                    
 4879.0000
     8.837000    82.376999   133.576004     5.262000     2.649000     5.479000
     7.958000   -13.933614                                                    
 4879.5000
     9.007000    81.252998   133.755005     5.238000     2.648000     5.430000
     8.003000   -14.053947                                                    
