~VERSION INFORMATION
 VERS.                 2.0:   CWLS Log Ascii Standard    
 WRAP.                 YES:   Multiple Lines per Depth   
~WELL INFORMATION
#MNEM.UNIT              DATA                DESCRIPTION OF MNEMONIC  
#---------              ----                -----------------------  
 STRT  .FT         4544.0000                :Top Depth  
 STOP  .FT         5750.0000                :Bottom Depth  
 STEP  .FT             .5000                :Increment  
 NULL  .          -99999.000                :Null Value  
 COMP  .  GULF OIL CORPORATION              :Company   
 FLD   .  DEES NORTHEAST                    :Field  
 STAT  .  TEXAS                             :State  
 SRVC  .  SCHLUMBERGER                      :Service Company  
 WELL  .  B YATES 11                        :Well  
 UWI   .  422373031500                      :Unique Well ID  
~PARAMETER INFORMATION
#MNEM.UNIT        Value       Description                
#---------    -------------   -------------------------- 
 RUN   .                 1:   Run Number                 
 DATUM .FT        984.0000:   Datum                      
 AMST  .DEG.F      80.0000:   Annual Mean Surface Temp.  
 BHT   .DEG.F     127.0000:   Bottom Hole Temperature    
 TD    .FT       5750.0000:   Loggers Total Depth        
 BITSIZ.IN          7.8750:   Bit Size                   
 MW    .LB/USGAL    9.5000:   Mud Weight                 
 RM    .OHM-M       3.4200:   Mud Resistivity            
 RMMT  .DEG.F      78.0000:   Mud Resistivity Meas. Temp.
 RMF   .OHM-M       2.9000:   Mud Filtrate Resistivity   
 RMFMT .DEG.F      78.0000:   Mud Filtrate Res.Meas.Temp.
 SALFM .PPM      150000.00:   Formation Water Salinity   
~CURVE INFORMATION
#MNEM.UNIT       API Code     Curve Description          
#---------    -------------   -------------------------- 
 DEPTH .FT                    : Depth                                   
 CALI  .INS                   : Caliper                                 
 DLT   .US/FT                 : Borehole Compensated Sonic Travel Time  
 GR    .API                   : Gamma Ray                               
 RILD  .OHMM                  : Deep Induction Resistivity              
 RHOB  .G/CC                  : Formation Density Compensated           
 RILM  .OHMM                  : Medium Induction Resistivity            
 RLL8  .OHMM                  : Laterlog 8 Resistivity                 
 SP    .MV                    : Spontaneous Potential                   
~A Log Data Section - Number of Curves =     9
# ...
 4784.0000
     8.653000    85.703003   121.232002     4.483000     2.639000     4.642000
     6.917000   -18.612343                                                    
 4784.5000
     8.783000    85.010002   120.556000     4.570000     2.639000     4.642000
     6.817000   -18.791822                                                    
 4785.0000
     8.660000    84.317001   120.794998     4.659000     2.639000     4.843000
     6.717000   -18.971302                                                    
 4785.5000
     8.561000    80.304001   119.634003     4.855000     2.601000     5.052000
     6.333000   -19.226927                                                    
 4786.0000
     8.535000    72.172997   119.874001     5.058000     2.595000     5.427000
     7.404000   -19.483231                                                    
 4786.5000
     8.524000    78.021004   116.427002     5.270000     2.603000     5.831000
     7.696000   -19.825195                                                    
 4787.0000
     8.513000    75.716003   111.452003     5.972000     2.596000     6.369000
     7.999000   -20.163761                                                    
 4787.5000
     8.514000    74.831001   106.311996     6.767000     2.611000     6.956000
    10.714000   -20.582548                                                    
 4788.0000
     8.519000    73.374001   106.018997     7.432000     2.640000     7.612000
    12.241000   -21.001335                                                    
 4788.5000
     8.525000    71.917000   105.212997     8.162000     2.637000     8.329000
    13.986000   -21.831432                                                    
 4789.0000
     8.533000    70.535004   102.532997     9.031000     2.633000     9.403000
    14.643000   -22.451456                                                    
 4789.5000
     8.544000    69.152000    99.856003     9.352000     2.640000    10.327000
    13.706000   -22.732914                                                    
 4790.0000
     8.536000    67.769997    94.750999     9.684000     2.641000    10.873000
    17.056999   -23.013012                                                    
 4790.5000
     8.511000    69.028000    95.136002     9.791000     2.637000    10.685000
    18.325001   -22.979019                                                    
 4791.0000
     8.520000    70.287003   102.612999     9.900000     2.643000    10.500000
    20.274000   -22.992617                                                    
 4791.5000
     8.512000    69.377998   109.410004     9.955000     2.653000    10.404000
    17.502001   -23.169378                                                    
 4792.0000
     8.478000    74.795998   114.563004    10.010000     2.656000    10.309000
    15.109000   -23.132666                                                    
 4792.5000
     8.471000    73.708000   114.392998    10.065000     2.658000    10.233000
    13.067000   -22.985138                                                    
 4793.0000
     8.433000    71.749001   108.072998    10.066000     2.660000    10.471000
    12.458000   -22.836252                                                    
 4793.5000
     8.415000    69.790001   100.065002    10.066000     2.652000    10.715000
    13.557000   -22.902876                                                    
 4794.0000
     8.443000    69.436996    88.946999    10.084000     2.636000    11.014000
    14.753000   -22.971540                                                    
 4794.5000
     8.486000    69.084000    83.546997    10.103000     2.639000    11.106000
    16.055000   -23.040207                                                    
 4795.0000
     8.529000    69.679001    91.835999    10.177000     2.634000    11.198000
    17.375000   -23.105473                                                    
 4795.5000
     8.539000    70.614998   100.133003    10.347000     2.627000    11.219000
    18.632000   -23.171417                                                    
 4796.0000
     8.474000    71.551003   106.725998    10.253000     2.632000    11.127000
    17.375000   -23.513382                                                    
 4796.5000
     8.523000    72.886002   107.570000    10.159000     2.672000    11.035000
    16.202999   -23.640512                                                    
 4797.0000
     8.569000    73.809998   110.928001    10.066000     2.687000    10.520000
    15.110000   -23.679266                                                    
 4797.5000
     8.602000    74.734001   114.686996     9.727000     2.697000     9.775000
    15.152000   -23.717337                                                    
 4798.0000
     8.635000    75.657997   120.563004     9.399000     2.668000     9.518000
    15.194000   -23.629637                                                    
 4798.5000
     8.666000    76.582001   121.163002     9.082000     2.653000     9.267000
    13.633000   -23.585445                                                    
 4799.0000
     8.664000    76.539001   122.122002     8.730000     2.635000     8.958000
    12.459000   -23.541937                                                    
 4799.5000
     8.662000    76.496002   123.022003     8.392000     2.617000     8.658000
    12.620000   -23.719378                                                    
 4800.0000
     8.669000    77.519997   120.904999     8.224000     2.631000     8.446000
    11.619000   -23.466473                                                    
 4800.5000
     8.676000    78.795998   124.528999     8.060000     2.645000     8.240000
    11.728000   -23.339340                                                    
 4801.0000
     8.622000    80.072998   123.749001     7.987000     2.666000     8.135000
    11.870000   -23.212887                                                    
 4801.5000
     8.567000    78.639000   122.806000     7.915000     2.666000     8.107000
    12.014000   -22.900837                                                    
 4802.0000
     8.513000    74.746002   125.264999     8.342000     2.642000     8.742000
    10.761000   -22.584707                                                    
 4802.5000
     8.542000    70.852997   108.093002     8.791000     2.672000     9.222000
    10.213000   -22.544596                                                    
 4803.0000
     8.540000    66.959999    95.161003     9.342000     2.689000    10.299000
     9.693000   -22.667648                                                    
 4803.5000
     8.554000    64.320000    83.391998     9.927000     2.705000    11.354000
    12.064000   -23.278154                                                    
 4804.0000
     8.574000    65.757004    71.634003    10.766000     2.694000    12.132000
    15.015000   -23.475990                                                    
 4804.5000
     8.593000    67.194000    74.394997    11.180000     2.705000    12.963000
    25.826000   -23.673147                                                    
 4805.0000
     8.619000    67.001999    81.333000    11.610000     2.690000    13.450000
    44.421001   -23.960724                                                    
 4805.5000
     8.647000    66.809998    82.098999    12.498000     2.684000    14.085000
    30.200001   -24.241501                                                    
 4806.0000
     8.640000    69.137001    88.494003    13.040000     2.677000    14.269000
    20.532000   -24.091934                                                    
 4806.5000
     8.630000    71.463997    98.510002    12.084000     2.676000    12.756000
    23.375000   -24.107571                                                    
 4807.0000
     8.626000    73.718002   107.776001    11.198000     2.681000    11.876000
    26.611000   -24.087854                                                    
 4807.5000
     8.601000    72.574997   116.595001    10.894000     2.646000    11.427000
    18.027000   -24.068819                                                    
