~VERSION INFORMATION
 VERS.                 2.0:   CWLS Log Ascii Standard    
 WRAP.                 YES:   Multiple Lines per Depth   
~WELL INFORMATION
#MNEM.UNIT              DATA                DESCRIPTION OF MNEMONIC  
#---------              ----                -----------------------  
 STRT  .FT         4544.0000                :Top Depth  
 STOP  .FT         5750.0000                :Bottom Depth  
 STEP  .FT             .5000                :Increment  
 NULL  .          -99999.000                :Null Value  
 COMP  .  GULF OIL CORPORATION              :Company   
 FLD   .  DEES NORTHEAST                    :Field  
 STAT  .  TEXAS                             :State  
 SRVC  .  SCHLUMBERGER                      :Service Company  
 WELL  .  B YATES 11                        :Well  
 UWI   .  422373031500                      :Unique Well ID  
~PARAMETER INFORMATION
#MNEM.UNIT        Value       Description                
#---------    -------------   -------------------------- 
 RUN   .                 1:   Run Number                 
 DATUM .FT        984.0000:   Datum                      
 AMST  .DEG.F      80.0000:   Annual Mean Surface Temp.  
 BHT   .DEG.F     127.0000:   Bottom Hole Temperature    
 TD    .FT       5750.0000:   Loggers Total Depth        
 BITSIZ.IN          7.8750:   Bit Size                   
 MW    .LB/USGAL    9.5000:   Mud Weight                 
 RM    .OHM-M       3.4200:   Mud Resistivity            
 RMMT  .DEG.F      78.0000:   Mud Resistivity Meas. Temp.
 RMF   .OHM-M       2.9000:   Mud Filtrate Resistivity   
 RMFMT .DEG.F      78.0000:   Mud Filtrate Res.Meas.Temp.
 SALFM .PPM      150000.00:   Formation Water Salinity   
~CURVE INFORMATION
#MNEM.UNIT       API Code     Curve Description          
#---------    -------------   -------------------------- 
 DEPTH .FT                    : Depth                                   
 CALI  .INS                   : Caliper                                 
 DLT   .US/FT                 : Borehole Compensated Sonic Travel Time  
 GR    .API                   : Gamma Ray                               
 RILD  .OHMM                  : Deep Induction Resistivity              
 RHOB  .G/CC                  : Formation Density Compensated           
 RILM  .OHMM                  : Medium Induction Resistivity            
 RLL8  .OHMM                  : Laterlog 8 Resistivity                 
 SP    .MV                    : Spontaneous Potential                   
~A Log Data Section - Number of Curves =     9
# ...
 5408.0000
     8.313000    84.757004    99.443001     3.492000     2.638000     3.864000
     5.757000   -11.260444                                                    
 5408.5000
     8.294000    83.967003    99.648003     3.557000     2.660000     3.913000
     5.929000   -11.204696                                                    
 5409.0000
     8.273000    82.616997    99.330002     3.680000     2.623000     3.964000
     6.105000   -11.148948                                                    
 5409.5000
     8.221000    74.274002    97.819000     3.808000     2.603000     4.015000
     6.264000   -11.132632                                                    
 5410.0000
     8.151000    65.931000    97.287003     3.941000     2.610000     4.242000
     6.426000   -11.115635                                                    
 5410.5000
     8.259000    73.884003    94.098000     4.111000     2.608000     4.400000
     6.593000   -11.099319                                                    
 5411.0000
     8.367000    81.837997    90.924004     4.288000     2.574000     4.527000
     6.860000   -11.073485                                                    
 5411.5000
     8.439000    81.219002    88.108002     4.403000     2.552000     4.657000
     7.138000   -11.046970                                                    
 5412.0000
     8.388000    80.600998    86.869003     4.521000     2.588000     4.730000
     7.427000   -10.961989                                                    
 5412.5000
     8.376000    79.983002    87.581001     4.630000     2.605000     4.804000
     7.655000   -10.875648                                                    
 5413.0000
     8.364000    79.760002    88.499001     4.742000     2.621000     4.974000
     7.890000   -10.701607                                                    
 5413.5000
     8.359000    79.538002    89.959000     4.781000     2.634000     5.037000
     8.184000   -10.527565                                                    
 5414.0000
     8.388000    79.822998    90.014999     4.820000     2.637000     5.060000
     8.289000   -10.175403                                                    
 5414.5000
     8.412000    80.109001    89.571999     4.824000     2.599000     5.083000
     7.974000   -10.089742                                                    
 5415.0000
     8.413000    80.572998    86.790001     4.827000     2.602000     5.050000
     7.671000   -10.004080                                                    
 5415.5000
     8.414000    81.036003    85.052002     4.792000     2.601000     5.017000
     7.635000   -10.066627                                                    
 5416.0000
     8.405000    80.509003    88.143997     4.756000     2.586000     5.044000
     7.600000   -10.129172                                                    
 5416.5000
     8.393000    80.458000    90.964996     4.790000     2.578000     5.068000
     7.676000   -10.458220                                                    
 5417.0000
     8.368000    80.291000    92.734001     4.816000     2.602000     5.093000
     7.753000   -10.786588                                                    
 5417.5000
     8.345000    80.124001    96.619003     4.842000     2.612000     5.117000
     7.788000   -11.026575                                                    
 5418.0000
     8.335000    78.328003    97.001999     4.851000     2.598000     5.097000
     7.823000   -11.562977                                                    
 5418.5000
     8.323000    76.532997    97.225998     4.636000     2.602000     5.055000
     7.793000   -12.098699                                                    
 5419.0000
     8.316000    80.487000    96.389000     4.432000     2.606000     5.013000
     7.764000   -12.575953                                                    
 5419.5000
     8.366000    80.683998    96.028999     4.371000     2.614000     4.912000
     7.678000   -13.051848                                                    
 5420.0000
     8.425000    80.879997    99.152000     4.311000     2.602000     4.691000
     7.812000   -13.765691                                                    
 5420.5000
     8.562000    82.514999   102.498001     4.116000     2.618000     4.294000
     7.949000   -14.479534                                                    
 5421.0000
     8.658000    84.150002   108.094002     4.101000     2.628000     4.239000
     7.398000   -15.667233                                                    
 5421.5000
     8.425000    85.785004   115.768997     4.085000     2.564000     4.309000
     6.886000   -15.670630                                                    
 5422.0000
     8.433000    83.195000   109.765999     3.959000     2.508000     4.413000
     4.629000   -14.962907                                                    
 5422.5000
     8.441000    80.606003   103.769997     3.837000     2.537000     4.336000
     5.872000   -14.581511                                                    
 5423.0000
     8.450000    78.016998    98.719002     3.739000     2.562000     4.260000
     7.450000   -14.200115                                                    
 5423.5000
     8.457000    80.690002   104.251999     3.644000     2.554000     3.907000
    10.294000   -13.907100                                                    
 5424.0000
     8.456000    83.362999   109.697998     3.590000     2.562000     3.650000
     7.393000   -13.614764                                                    
 5424.5000
     8.455000    86.037003   113.700996     3.616000     2.572000     3.609000
     6.440000   -13.854072                                                    
 5425.0000
     8.454000    87.141998   114.739998     3.642000     2.594000     3.690000
     5.610000   -14.183119                                                    
 5425.5000
     8.452000    88.248001   117.858002     3.651000     2.569000     3.772000
     5.353000   -14.512166                                                    
 5426.0000
     8.437000    86.140999   117.413002     3.660000     2.608000     4.044000
     5.107000   -14.811300                                                    
 5426.5000
     8.422000    82.352997   118.274002     3.668000     2.600000     4.145000
     5.298000   -14.608026                                                    
 5427.0000
     8.407000    78.566002   108.295998     3.861000     2.647000     4.249000
     6.586000   -14.403390                                                    
 5427.5000
     8.395000    77.185997   101.152000     4.003000     2.622000     4.391000
     8.189000   -14.317729                                                    
 5428.0000
     8.439000    79.092003   104.503998     4.150000     2.598000     4.435000
    12.156000   -14.232748                                                    
 5428.5000
     8.437000    80.999001   107.859001     4.302000     2.604000     4.480000
     9.701000   -14.354442                                                    
 5429.0000
     8.435000    82.905998   110.844002     4.655000     2.582000     5.057000
     7.742000   -13.705864                                                    
 5429.5000
     8.433000    79.811996    92.362000     5.029000     2.559000     5.353000
     6.178000   -12.969586                                                    
 5430.0000
     8.431000    77.688004    83.932999     5.216000     2.594000     5.697000
     8.906000   -12.232630                                                    
 5430.5000
     8.420000    75.563004    75.507004     5.159000     2.592000     5.976000
    10.488000   -11.782568                                                    
 5431.0000
     8.409000    73.439003    78.956001     5.102000     2.598000     5.791000
    12.238000   -11.331827                                                    
 5431.5000
     8.398000    78.335999    82.408997     5.124000     2.588000     5.535000
    11.265000   -10.881086                                                    
