~VERSION INFORMATION
 VERS.                 2.0:   CWLS Log Ascii Standard    
 WRAP.                 YES:   Multiple Lines per Depth   
~WELL INFORMATION
#MNEM.UNIT              DATA                DESCRIPTION OF MNEMONIC  
#---------              ----                -----------------------  
 STRT  .FT         4544.0000                :Top Depth  
 STOP  .FT         5750.0000                :Bottom Depth  
 STEP  .FT             .5000                :Increment  
 NULL  .          -99999.000                :Null Value  
 COMP  .  GULF OIL CORPORATION              :Company   
 FLD   .  DEES NORTHEAST                    :Field  
 STAT  .  TEXAS                             :State  
 SRVC  .  SCHLUMBERGER                      :Service Company  
 WELL  .  B YATES 11                        :Well  
 UWI   .  422373031500                      :Unique Well ID  
~PARAMETER INFORMATION
#MNEM.UNIT        Value       Description                
#---------    -------------   -------------------------- 
 RUN   .                 1:   Run Number                 
 DATUM .FT        984.0000:   Datum                      
 AMST  .DEG.F      80.0000:   Annual Mean Surface Temp.  
 BHT   .DEG.F     127.0000:   Bottom Hole Temperature    
 TD    .FT       5750.0000:   Loggers Total Depth        
 BITSIZ.IN          7.8750:   Bit Size                   
 MW    .LB/USGAL    9.5000:   Mud Weight                 
 RM    .OHM-M       3.4200:   Mud Resistivity            
 RMMT  .DEG.F      78.0000:   Mud Resistivity Meas. Temp.
 RMF   .OHM-M       2.9000:   Mud Filtrate Resistivity   
 RMFMT .DEG.F      78.0000:   Mud Filtrate Res.Meas.Temp.
 SALFM .PPM      150000.00:   Formation Water Salinity   
~CURVE INFORMATION
#MNEM.UNIT       API Code     Curve Description          
#---------    -------------   -------------------------- 
 DEPTH .FT                    : Depth                                   
 CALI  .INS                   : Caliper                                 
 DLT   .US/FT                 : Borehole Compensated Sonic Travel Time  
 GR    .API                   : Gamma Ray                               
 RILD  .OHMM                  : Deep Induction Resistivity              
 RHOB  .G/CC                  : Formation Density Compensated           
 RILM  .OHMM                  : Medium Induction Resistivity            
 RLL8  .OHMM                  : Laterlog 8 Resistivity                 
 SP    .MV                    : Spontaneous Potential                   
~A Log Data Section - Number of Curves =     9
# ...
 5240.0000
     8.742000    85.569000   117.935997     4.280000     2.628000     4.323000
     6.485000   -15.652955                                                    
 5240.5000
     8.542000    85.419998   121.555000     4.312000     2.611000     4.343000
     6.355000   -16.030272                                                    
 5241.0000
     8.510000    83.689003   125.929001     4.316000     2.592000     4.465000
     6.234000   -16.406908                                                    
 5241.5000
     8.735000    81.957001   131.085007     4.320000     2.589000     4.515000
     6.115000   -16.619701                                                    
 5242.0000
     8.670000    82.906998   152.263000     4.253000     2.577000     4.565000
     6.655000   -16.831816                                                    
 5242.5000
     8.616000    83.856003   163.011002     4.187000     2.537000     4.667000
     7.275000   -17.397451                                                    
 5243.0000
     8.855000    89.825996   154.313004     4.141000     2.436000     4.344000
     7.954000   -17.963085                                                    
 5243.5000
     8.706000    92.202003   149.595001     4.096000     2.514000     4.195000
     9.215000   -18.498808                                                    
 5244.0000
     8.760000    94.578003   135.149002     4.003000     2.589000     4.051000
     6.415000   -18.821056                                                    
 5244.5000
     8.814000    91.711998   126.656998     3.912000     2.600000     3.999000
     6.065000   -19.142626                                                    
 5245.0000
     8.867000    88.847000   118.185997     3.777000     2.611000     3.897000
     5.734000   -18.699364                                                    
 5245.5000
     8.826000    87.839996   114.070000     3.692000     2.597000     3.865000
     5.558000   -18.040588                                                    
 5246.0000
     8.784000    86.833000   109.950996     3.608000     2.615000     3.833000
     6.356000   -17.794483                                                    
 5246.5000
     8.743000    85.825996   113.609001     3.568000     2.621000     3.764000
     6.982000   -17.548378                                                    
 5247.0000
     8.703000    86.140999   117.949997     3.529000     2.628000     3.695000
     7.177000   -17.487871                                                    
 5247.5000
     8.676000    86.455002   116.188004     3.555000     2.660000     3.716000
     6.736000   -17.532061                                                    
 5248.0000
     8.653000    86.769997   114.890999     3.591000     2.643000     3.736000
     6.322000   -17.637438                                                    
 5248.5000
     8.630000    85.862999   113.607002     3.628000     2.675000     3.806000
     6.218000   -17.742134                                                    
 5249.0000
     8.607000    84.955002   112.232002     3.645000     2.690000     3.876000
     6.316000   -17.788364                                                    
 5249.5000
     8.754000    84.339996   116.253998     3.662000     2.684000     3.963000
     6.416000   -17.729898                                                    
 5250.0000
     8.907000    83.724998   120.484001     3.658000     2.695000     3.992000
     6.620000   -17.672789                                                    
 5250.5000
     8.945000    83.188004   127.771004     3.655000     2.695000     4.007000
     6.608000   -18.371675                                                    
 5251.0000
     8.855000    84.727997   130.615997     3.608000     2.640000     4.022000
     6.700000   -18.884962                                                    
 5251.5000
     8.866000    86.268997   133.207001     3.562000     2.582000     3.934000
     6.793000   -19.398930                                                    
 5252.0000
     8.885000    88.089996   138.382996     3.517000     2.564000     3.855000
     6.387000   -20.259619                                                    
 5252.5000
     8.770000    89.911003   140.695007     3.504000     2.559000     3.827000
     6.006000   -20.227667                                                    
 5253.0000
     8.646000    90.167999   142.774994     3.510000     2.556000     3.764000
     5.642000   -20.195034                                                    
 5253.5000
     8.615000    90.424004   146.610001     3.517000     2.570000     3.744000
     5.663000   -20.057024                                                    
 5254.0000
     8.469000    89.003998   143.598007     3.595000     2.563000     3.758000
     5.725000   -19.918335                                                    
 5254.5000
     8.311000    88.789001   139.927994     3.676000     2.572000     3.772000
     5.616000   -19.477791                                                    
 5255.0000
     8.212000    85.325996   113.814003     4.290000     2.584000     4.282000
     5.509000   -19.688545                                                    
 5255.5000
     8.216000    81.862999    85.280998     4.911000     2.569000     4.861000
     5.616000   -20.604303                                                    
 5256.0000
     8.233000    69.970001    54.783001     5.621000     2.593000     5.519000
     5.726000   -20.925192                                                    
 5256.5000
     8.339000    65.397003    40.992001     7.036000     2.587000     6.549000
     8.472000   -21.246761                                                    
 5257.0000
     8.456000    60.823002    42.747002     8.629000     2.590000     7.770000
    15.162000   -21.132547                                                    
 5257.5000
     8.476000    60.432999    46.287998    11.041000     2.594000    13.442000
    27.136999   -21.019012                                                    
 5258.0000
     8.505000    60.042999    57.639999    12.171000     2.590000    16.731001
   477.268005   -20.906157                                                    
 5258.5000
     8.537000    59.653000    78.002998    13.418000     2.610000    18.735001
   419.635986   -20.084898                                                    
 5259.0000
     8.602000    64.370003    99.609001    15.094000     2.632000    20.979000
   319.257996   -19.509745                                                    
 5259.5000
     8.671000    70.112999   109.411003    12.934000     2.633000    11.776000
   242.889999   -18.935951                                                    
 5260.0000
     8.643000    75.857002   112.357002    10.821000     2.631000     9.349000
   184.789993   -18.003197                                                    
 5260.5000
     8.705000    79.527000   115.391998     7.050000     2.664000     7.422000
    36.966999   -17.725819                                                    
 5261.0000
     8.786000    83.196999   116.207001     6.136000     2.645000     6.307000
    13.469000   -17.859749                                                    
 5261.5000
     8.831000    86.866997   117.031998     5.340000     2.642000     5.360000
    11.435000   -17.992319                                                    
 5262.0000
     8.929000    88.067001   117.952003     4.038000     2.644000     4.610000
     9.709000   -18.145966                                                    
 5262.5000
     8.723000    89.267998   118.847000     3.626000     2.606000     3.964000
     8.258000   -18.006596                                                    
 5263.0000
     8.585000    90.008003   117.934998     3.256000     2.582000     3.486000
     8.319000   -17.867907                                                    
 5263.5000
     8.633000    88.741997   118.455002     2.998000     2.565000     3.185000
     7.729000   -17.989601                                                    
