~VERSION INFORMATION
 VERS.                 2.0:   CWLS Log Ascii Standard    
 WRAP.                 YES:   Multiple Lines per Depth   
~WELL INFORMATION
#MNEM.UNIT              DATA                DESCRIPTION OF MNEMONIC  
#---------              ----                -----------------------  
 STRT  .FT         4544.0000                :Top Depth  
 STOP  .FT         5750.0000                :Bottom Depth  
 STEP  .FT             .5000                :Increment  
 NULL  .          -99999.000                :Null Value  
 COMP  .  GULF OIL CORPORATION              :Company   
 FLD   .  DEES NORTHEAST                    :Field  
 STAT  .  TEXAS                             :State  
 SRVC  .  SCHLUMBERGER                      :Service Company  
 WELL  .  B YATES 11                        :Well  
 UWI   .  422373031500                      :Unique Well ID  
~PARAMETER INFORMATION
#MNEM.UNIT        Value       Description                
#---------    -------------   -------------------------- 
 RUN   .                 1:   Run Number                 
 DATUM .FT        984.0000:   Datum                      
 AMST  .DEG.F      80.0000:   Annual Mean Surface Temp.  
 BHT   .DEG.F     127.0000:   Bottom Hole Temperature    
 TD    .FT       5750.0000:   Loggers Total Depth        
 BITSIZ.IN          7.8750:   Bit Size                   
 MW    .LB/USGAL    9.5000:   Mud Weight                 
 RM    .OHM-M       3.4200:   Mud Resistivity            
 RMMT  .DEG.F      78.0000:   Mud Resistivity Meas. Temp.
 RMF   .OHM-M       2.9000:   Mud Filtrate Resistivity   
 RMFMT .DEG.F      78.0000:   Mud Filtrate Res.Meas.Temp.
 SALFM .PPM      150000.00:   Formation Water Salinity   
~CURVE INFORMATION
#MNEM.UNIT       API Code     Curve Description          
#---------    -------------   -------------------------- 
 DEPTH .FT                    : Depth                                   
 CALI  .INS                   : Caliper                                 
 DLT   .US/FT                 : Borehole Compensated Sonic Travel Time  
 GR    .API                   : Gamma Ray                               
 RILD  .OHMM                  : Deep Induction Resistivity              
 RHOB  .G/CC                  : Formation Density Compensated           
 RILM  .OHMM                  : Medium Induction Resistivity            
 RLL8  .OHMM                  : Laterlog 8 Resistivity                 
 SP    .MV                    : Spontaneous Potential                   
~A Log Data Section - Number of Curves =     9
# ...
 5720.0000
     8.984000    79.584999   103.492996     3.709000     2.586000     3.936000
     6.823000   -19.809559                                                    
 5720.5000
     8.987000    82.709000   103.005997     3.808000     2.604000     4.066000
     6.819000   -19.798681                                                    
 5721.0000
     8.989000    82.403999   103.028999     3.931000     2.589000     4.111000
     6.815000   -19.786444                                                    
 5721.5000
     8.975000    82.099998   103.037003     4.013000     2.612000     4.157000
     6.919000   -19.556654                                                    
 5722.0000
     8.960000    82.278999    99.566002     4.018000     2.634000     4.104000
     6.924000   -19.326185                                                    
 5722.5000
     8.946000    82.458000    98.250999     4.023000     2.669000     4.052000
     7.120000   -19.203812                                                    
 5723.0000
     8.932000    82.810997   100.560997     3.944000     2.629000     3.987000
     7.322000   -19.081438                                                    
 5723.5000
     8.938000    83.164001    99.610001     3.867000     2.611000     3.924000
     7.490000   -19.579769                                                    
 5724.0000
     8.945000    78.820999   101.864998     3.802000     2.594000     3.861000
     6.976000   -20.078098                                                    
 5724.5000
     8.900000    74.478996   102.725998     3.738000     2.605000     3.800000
     6.946000   -20.334402                                                    
 5725.0000
     8.853000    78.439003   103.584000     3.698000     2.583000     3.766000
     6.916000   -20.590706                                                    
 5725.5000
     8.719000    82.399002   103.463997     3.659000     2.568000     3.759000
     7.024000   -20.692684                                                    
 5726.0000
     8.568000    79.018997   106.792999     3.621000     2.576000     3.787000
     7.059000   -20.793982                                                    
 5726.5000
     8.419000    64.227997   106.875999     3.589000     2.583000     3.815000
     7.094000   -20.711720                                                    
 5727.0000
     8.723000    74.258003   106.947998     3.558000     2.574000     3.809000
     6.427000   -20.620619                                                    
 5727.5000
     9.069000    84.288002   104.128998     3.580000     2.603000     3.909000
     7.361000   -20.528839                                                    
 5728.0000
     9.066000    83.953003   103.171997     3.635000     2.615000     4.011000
     8.431000   -20.679087                                                    
 5728.5000
     9.064000    85.028999   104.810997     3.690000     2.626000     4.094000
     7.293000   -20.827974                                                    
 5729.0000
     9.061000    83.726997   106.431999     3.760000     2.606000     4.178000
     6.309000   -20.381992                                                    
 5729.5000
     9.059000    82.329002   103.017998     3.831000     2.622000     4.296000
     7.519000   -19.935331                                                    
 5730.0000
     9.056000    80.931000   102.223000     3.962000     2.613000     4.352000
     8.126000   -19.041328                                                    
 5730.5000
     8.997000    80.835999   100.778999     3.997000     2.622000     4.265000
     8.781000   -18.947508                                                    
 5731.0000
     9.035000    80.739998    99.360001     4.032000     2.632000     4.254000
     8.722000   -18.854370                                                    
 5731.5000
     9.074000    82.150002   104.072998     4.034000     2.610000     4.243000
     8.695000   -19.487989                                                    
 5732.0000
     9.032000    82.509003   108.064003     4.039000     2.618000     4.251000
     8.811000   -19.857149                                                    
 5732.5000
     8.991000    82.866997   109.944000     4.045000     2.627000     4.259000
     7.581000   -20.226307                                                    
 5733.0000
     8.932000    81.911003   111.814003     4.099000     2.603000     4.564000
     7.099000   -20.377913                                                    
 5733.5000
     8.821000    71.445999   110.924004     4.259000     2.575000     4.892000
     7.287000   -20.530880                                                    
 5734.0000
     8.711000    82.234001    99.608002     4.425000     2.651000     5.180000
     7.550000   -20.052946                                                    
 5734.5000
     8.857000    78.943001    75.085999     4.609000     2.628000     5.486000
     7.857000   -19.575010                                                    
 5735.0000
     9.002000    75.652000    74.904999     4.802000     2.613000     5.928000
     8.176000   -19.232367                                                    
 5735.5000
     8.967000    74.587997  -99999.0000     5.003000     2.599000     6.039000
    10.662000   -18.889042                                                    
 5736.0000
     8.932000    73.525002  -99999.0000     5.221000     2.645000     6.152000
    13.904000   -18.808140                                                    
 5736.5000
     8.853000    74.390999  -99999.0000     5.420000     2.639000     5.611000
    13.882000   -18.726557                                                    
 5737.0000
     8.929000    75.258003  -99999.0000     5.762000     2.652000     5.413000
    13.071000   -18.645655                                                    
 5737.5000
     8.878000    77.301003  -99999.0000     5.639000     2.641000     5.222000
    12.150000   -18.411787                                                    
 5738.0000
     8.827000    79.344002  -99999.0000     5.462000     2.630000     4.824000
    12.475000   -18.765308                                                    
 5738.5000
     8.893000    82.963997  -99999.0000     5.291000     2.647000     4.532000
    11.073000   -19.053564                                                    
 5739.0000
     8.959000    83.693001  -99999.0000     4.982000     2.604000     4.812000
     9.828000   -19.341822                                                    
 5739.5000
     8.833000    84.421997  -99999.0000     4.813000     2.617000     5.110000
     8.409000   -19.434961                                                    
 5740.0000
     8.913000    82.115997  -99999.0000     4.599000     2.585000     5.507000
     7.439000   -19.477791                                                    
 5740.5000
     8.993000    69.661003  -99999.0000     4.652000     2.606000     5.934000
     7.239000   -19.676987                                                    
 5741.0000
     8.976000    57.205002  -99999.0000     4.662000     2.627000     6.227000
     8.284000   -19.314629                                                    
 5741.5000
     8.959000    73.310997  -99999.0000     4.673000     2.588000     6.533000
    10.882000   -18.951588                                                    
 5742.0000
     8.864000    72.778999  -99999.0000     4.692000     2.618000     6.842000
    13.403000   -18.601465                                                    
 5742.5000
     8.795000    72.248001  -99999.0000     4.669000     2.648000     6.922000
    14.300000   -18.724518                                                    
 5743.0000
     8.724000    73.143997  -99999.0000     4.680000     2.623000     7.003000
    14.019000   -18.848249                                                    
 5743.5000
     8.502000    73.657997  -99999.0000     4.690000     2.630000     7.085000
    13.695000   -18.730637                                                    
