~VERSION INFORMATION
 VERS.                 2.0:   CWLS Log Ascii Standard    
 WRAP.                 YES:   Multiple Lines per Depth   
~WELL INFORMATION
#MNEM.UNIT              DATA                DESCRIPTION OF MNEMONIC  
#---------              ----                -----------------------  
 STRT  .FT         4544.0000                :Top Depth  
 STOP  .FT         5750.0000                :Bottom Depth  
 STEP  .FT             .5000                :Increment  
 NULL  .          -99999.000                :Null Value  
 COMP  .  GULF OIL CORPORATION              :Company   
 FLD   .  DEES NORTHEAST                    :Field  
 STAT  .  TEXAS                             :State  
 SRVC  .  SCHLUMBERGER                      :Service Company  
 WELL  .  B YATES 11                        :Well  
 UWI   .  422373031500                      :Unique Well ID  
~PARAMETER INFORMATION
#MNEM.UNIT        Value       Description                
#---------    -------------   -------------------------- 
 RUN   .                 1:   Run Number                 
 DATUM .FT        984.0000:   Datum                      
 AMST  .DEG.F      80.0000:   Annual Mean Surface Temp.  
 BHT   .DEG.F     127.0000:   Bottom Hole Temperature    
 TD    .FT       5750.0000:   Loggers Total Depth        
 BITSIZ.IN          7.8750:   Bit Size                   
 MW    .LB/USGAL    9.5000:   Mud Weight                 
 RM    .OHM-M       3.4200:   Mud Resistivity            
 RMMT  .DEG.F      78.0000:   Mud Resistivity Meas. Temp.
 RMF   .OHM-M       2.9000:   Mud Filtrate Resistivity   
 RMFMT .DEG.F      78.0000:   Mud Filtrate Res.Meas.Temp.
 SALFM .PPM      150000.00:   Formation Water Salinity   
~CURVE INFORMATION
#MNEM.UNIT       API Code     Curve Description          
#---------    -------------   -------------------------- 
 DEPTH .FT                    : Depth                                   
 CALI  .INS                   : Caliper                                 
 DLT   .US/FT                 : Borehole Compensated Sonic Travel Time  
 GR    .API                   : Gamma Ray                               
 RILD  .OHMM                  : Deep Induction Resistivity              
 RHOB  .G/CC                  : Formation Density Compensated           
 RILM  .OHMM                  : Medium Induction Resistivity            
 RLL8  .OHMM                  : Laterlog 8 Resistivity                 
 SP    .MV                    : Spontaneous Potential                   
~A Log Data Section - Number of Curves =     9
# ...
 5096.0000
     8.973000    83.749001   139.985001     5.568000     2.536000     5.840000
     8.563000   -19.562094                                                    
 5096.5000
     8.953000    84.632004   140.639008     5.515000     2.471000     5.854000
     8.505000   -19.456038                                                    
 5097.0000
     9.000000    85.038002   141.199005     5.462000     2.440000     5.846000
     8.659000   -19.406408                                                    
 5097.5000
     9.049000    85.617996   140.837006     5.439000     2.531000     5.753000
     8.816000   -19.574331                                                    
 5098.0000
     9.110000    86.196999   137.806000     5.416000     2.595000     5.697000
     8.739000   -19.687866                                                    
 5098.5000
     9.165000    84.549004   136.712006     5.364000     2.577000     5.642000
     8.663000   -19.800720                                                    
 5099.0000
     9.202000    86.233002   134.108994     5.312000     2.608000     5.523000
     8.588000   -19.804119                                                    
 5099.5000
     9.235000    85.833000   132.044998     5.218000     2.645000     5.469000
     8.443000   -19.917654                                                    
 5100.0000
     9.252000    85.432999   134.552002     5.167000     2.637000     5.416000
     8.299000   -20.032549                                                    
 5100.5000
     9.240000    85.857002   136.959000     5.117000     2.649000     5.378000
     8.003000   -20.147444                                                    
 5101.0000
     9.227000    86.280998   138.988998     5.007000     2.638000     5.320000
     7.975000   -20.456776                                                    
 5101.5000
     9.217000    85.887001   139.393005     4.945000     2.626000     5.263000
     7.948000   -20.766108                                                    
 5102.0000
     9.218000    86.926003   134.996002     4.918000     2.609000     5.216000
     7.935000   -20.997936                                                    
 5102.5000
     9.208000    86.980003   135.565994     4.892000     2.598000     5.199000
     7.922000   -21.006094                                                    
 5103.0000
     9.174000    87.033997   136.136002     4.911000     2.607000     5.209000
     7.780000   -20.742992                                                    
 5103.5000
     9.200000    87.224998   136.535004     4.904000     2.601000     5.220000
     7.854000   -20.534958                                                    
 5104.0000
     9.195000    87.249001   136.757996     4.878000     2.588000     5.183000
     7.928000   -20.545156                                                    
 5104.5000
     9.103000    86.569000   138.817001     4.853000     2.593000     5.243000
     7.843000   -20.667530                                                    
 5105.0000
     9.146000    86.281998   139.535004     4.854000     2.596000     5.249000
     7.759000   -20.241943                                                    
 5105.5000
     9.127000    85.542000   135.112000     4.855000     2.592000     5.254000
     8.083000   -19.979521                                                    
 5106.0000
     8.892000    84.802002   131.074997     4.861000     2.598000     5.251000
     8.181000   -19.772846                                                    
 5106.5000
     8.804000    84.539001   127.722000     4.866000     2.595000     5.247000
     8.281000   -19.618521                                                    
 5107.0000
     8.925000    82.807999   126.337997     4.877000     2.600000     5.144000
     8.391000   -19.464195                                                    
 5107.5000
     9.018000    83.822998   124.834000     4.869000     2.602000     5.164000
     7.784000   -19.311909                                                    
 5108.0000
     8.981000    84.837997   123.723999     4.861000     2.636000     5.214000
     7.887000   -19.049486                                                    
 5108.5000
     8.875000    85.852997   125.988998     4.854000     2.589000     5.158000
     7.990000   -19.222847                                                    
 5109.0000
     8.780000    84.970001   127.537003     4.802000     2.557000     5.107000
     8.463000   -19.560734                                                    
 5109.5000
     8.908000    85.758003   128.500000     4.777000     2.594000     5.057000
     8.085000   -19.842871                                                    
 5110.0000
     9.021000    85.447998   127.661003     4.752000     2.625000     5.021000
     7.830000   -20.124329                                                    
 5110.5000
     9.074000    86.439003   129.360001     4.727000     2.629000     5.032000
     7.584000   -20.247381                                                    
 5111.0000
     9.112000    87.430000   130.324997     4.702000     2.606000     5.024000
     7.698000   -20.258940                                                    
 5111.5000
     9.089000    87.400002   128.876007     4.655000     2.603000     5.015000
     7.813000   -20.594786                                                    
 5112.0000
     9.016000    87.371002   130.218994     4.610000     2.597000     4.925000
     8.139000   -20.766108                                                    
 5112.5000
     8.836000    86.708000   131.255997     4.552000     2.579000     4.868000
     8.126000   -20.938110                                                    
 5113.0000
     9.085000    86.045998   131.218994     4.504000     2.567000     4.811000
     8.112000   -21.166538                                                    
 5113.5000
     9.269000    86.834000   131.802002     4.500000     2.560000     4.708000
     7.609000   -20.961905                                                    
 5114.0000
     9.231000    87.622002   131.227997     4.497000     2.556000     4.666000
     7.472000   -20.618580                                                    
 5114.5000
     9.452000    88.410004   131.518997     4.486000     2.489000     4.646000
     7.337000   -20.274576                                                    
 5115.0000
     9.561000    88.875999   132.076004     4.474000     2.510000     4.626000
     6.997000   -20.065182                                                    
 5115.5000
     9.234000    89.473000   130.509003     4.452000     2.531000     4.661000
     6.960000   -19.854429                                                    
 5116.0000
     9.144000    90.070000   129.014008     4.439000     2.545000     4.696000
     7.053000   -19.490028                                                    
 5116.5000
     8.985000    89.246002   125.469002     4.426000     2.538000     4.706000
     7.146000   -19.689226                                                    
 5117.0000
     8.931000    88.422997   122.795998     4.413000     2.571000     4.664000
     7.362000   -19.888422                                                    
 5117.5000
     9.039000    88.817001   123.976997     4.366000     2.594000     4.622000
     7.276000   -20.033909                                                    
 5118.0000
     9.107000    87.670998   125.438004     4.319000     2.581000     4.539000
     7.191000   -20.179398                                                    
 5118.5000
     9.051000    88.016998   129.503006     4.273000     2.600000     4.458000
     7.179000   -20.406466                                                    
 5119.0000
     9.240000    88.363998   133.451996     4.227000     2.591000     4.410000
     7.167000   -20.498247                                                    
 5119.5000
     9.429000    90.023003   136.858994     4.174000     2.588000     4.363000
     6.711000   -20.590027                                                    
