~VERSION INFORMATION
 VERS.                 2.0:   CWLS Log Ascii Standard    
 WRAP.                 YES:   Multiple Lines per Depth   
~WELL INFORMATION
#MNEM.UNIT              DATA                DESCRIPTION OF MNEMONIC  
#---------              ----                -----------------------  
 STRT  .FT         4544.0000                :Top Depth  
 STOP  .FT         5750.0000                :Bottom Depth  
 STEP  .FT             .5000                :Increment  
 NULL  .          -99999.000                :Null Value  
 COMP  .  GULF OIL CORPORATION              :Company   
 FLD   .  DEES NORTHEAST                    :Field  
 STAT  .  TEXAS                             :State  
 SRVC  .  SCHLUMBERGER                      :Service Company  
 WELL  .  B YATES 11                        :Well  
 UWI   .  422373031500                      :Unique Well ID  
~PARAMETER INFORMATION
#MNEM.UNIT        Value       Description                
#---------    -------------   -------------------------- 
 RUN   .                 1:   Run Number                 
 DATUM .FT        984.0000:   Datum                      
 AMST  .DEG.F      80.0000:   Annual Mean Surface Temp.  
 BHT   .DEG.F     127.0000:   Bottom Hole Temperature    
 TD    .FT       5750.0000:   Loggers Total Depth        
 BITSIZ.IN          7.8750:   Bit Size                   
 MW    .LB/USGAL    9.5000:   Mud Weight                 
 RM    .OHM-M       3.4200:   Mud Resistivity            
 RMMT  .DEG.F      78.0000:   Mud Resistivity Meas. Temp.
 RMF   .OHM-M       2.9000:   Mud Filtrate Resistivity   
 RMFMT .DEG.F      78.0000:   Mud Filtrate Res.Meas.Temp.
 SALFM .PPM      150000.00:   Formation Water Salinity   
~CURVE INFORMATION
#MNEM.UNIT       API Code     Curve Description          
#---------    -------------   -------------------------- 
 DEPTH .FT                    : Depth                                   
 CALI  .INS                   : Caliper                                 
 DLT   .US/FT                 : Borehole Compensated Sonic Travel Time  
 GR    .API                   : Gamma Ray                               
 RILD  .OHMM                  : Deep Induction Resistivity              
 RHOB  .G/CC                  : Formation Density Compensated           
 RILM  .OHMM                  : Medium Induction Resistivity            
 RLL8  .OHMM                  : Laterlog 8 Resistivity                 
 SP    .MV                    : Spontaneous Potential                   
~A Log Data Section - Number of Curves =     9
# ...
 5480.0000
     8.557000    90.704002   113.364998     2.728000     2.536000     2.952000
     4.917000   -17.530701                                                    
 5480.5000
     8.567000    90.930000   112.083000     2.593000     2.557000     2.922000
     5.272000   -17.534101                                                    
 5481.0000
     8.577000    91.155998   114.541000     2.538000     2.561000     2.853000
     5.409000   -17.537498                                                    
 5481.5000
     8.586000    92.825996   117.158997     2.485000     2.548000     2.785000
     4.839000   -17.540897                                                    
 5482.0000
     8.596000    94.873001   120.625999     2.475000     2.535000     2.731000
     4.329000   -17.721739                                                    
 5482.5000
     8.575000    96.920998   124.404999     2.466000     2.520000     2.679000
     4.096000   -17.902580                                                    
 5483.0000
     8.515000    97.627998   127.231003     2.489000     2.522000     2.683000
     3.876000   -18.083418                                                    
 5483.5000
     8.481000    98.335999   129.917999     2.511000     2.523000     2.723000
     3.858000   -18.382553                                                    
 5484.0000
     8.479000    99.042999   130.507996     2.690000     2.490000     2.763000
     3.840000   -18.681688                                                    
 5484.5000
     8.441000    97.172997   128.507004     2.882000     2.474000     3.339000
     3.860000   -18.980820                                                    
 5485.0000
     8.387000    93.032997   124.304001     3.156000     2.489000     3.867000
     4.497000   -18.510365                                                    
 5485.5000
     8.383000    82.676003   114.725998     3.457000     2.504000     4.128000
     5.237000   -17.981441                                                    
 5486.0000
     8.379000    75.478996   101.914001     3.938000     2.558000     4.406000
     8.247000   -17.451839                                                    
 5486.5000
     8.375000    72.989998    89.089996     4.220000     2.653000     4.874000
    12.986000   -16.862408                                                    
 5487.0000
     8.349000    70.500999    84.847000     4.522000     2.692000     5.079000
    20.447001   -16.274338                                                    
 5487.5000
     8.318000    74.028999    91.300003     4.846000     2.702000     5.293000
    16.143000   -15.389853                                                    
 5488.0000
     8.337000    77.556999    93.621002     5.145000     2.668000     5.511000
    12.745000   -15.096837                                                    
 5488.5000
     8.294000    78.677002    95.899002     5.463000     2.659000     5.893000
     9.566000   -14.804502                                                    
 5489.0000
     8.179000    76.985001    95.165001     5.801000     2.676000     6.301000
     9.408000   -14.866369                                                    
 5489.5000
     8.114000    75.293999    88.616997     6.359000     2.659000     6.548000
    10.630000   -14.574034                                                    
 5490.0000
     8.169000    72.389000    82.879997     6.620000     2.651000     6.806000
    12.012000   -14.281018                                                    
 5490.5000
     8.344000    69.484001    81.179001     6.774000     2.655000     7.543000
    15.059000   -13.929535                                                    
 5491.0000
     8.353000    70.163002    79.985001     6.930000     2.650000     7.948000
    17.539000   -14.761671                                                    
 5491.5000
     8.357000    70.842003    82.377998     7.555000     2.629000     8.374000
    17.250000   -15.593127                                                    
 5492.0000
     8.351000    75.360001    89.828003     7.851000     2.605000     8.767000
    16.965000   -16.602705                                                    
 5492.5000
     8.350000    79.878998    97.331001     8.159000     2.571000     8.946000
    16.350000   -17.612284                                                    
 5493.0000
     8.361000    82.928001   104.960999     8.387000     2.543000     8.765000
    15.758000   -18.799982                                                    
 5493.5000
     8.355000    82.616997   113.519997     8.621000     2.512000     8.910000
    15.498000   -19.276556                                                    
 5494.0000
     8.318000    82.305000   114.827003     9.192000     2.470000     9.059000
    15.241000   -19.753132                                                    
 5494.5000
     8.294000    71.384003    96.147003     9.874000     2.500000     9.580000
    17.365000   -20.585268                                                    
 5495.0000
     8.270000    63.401001    81.296997    10.608000     2.633000    10.131000
    18.247000   -21.002695                                                    
 5495.5000
     8.269000    64.490997    75.885002    11.395000     2.643000    11.778000
    22.375999   -21.420803                                                    
 5496.0000
     8.321000    59.452999    72.040001    14.024000     2.648000    13.543000
    27.440001   -22.044905                                                    
 5496.5000
     8.331000    54.416000    72.122002    15.359000     2.627000    15.573000
    49.779999   -22.669687                                                    
 5497.0000
     8.239000    66.776001    75.144997    16.820999     2.607000    18.542999
    31.372999   -23.206089                                                    
 5497.5000
     8.146000    68.805000    61.620998    19.664000     2.587000    22.080000
    56.917000   -23.179575                                                    
 5498.0000
     8.101000    70.834999    49.555000    17.129000     2.582000    28.452999
   103.261002   -23.153740                                                    
 5498.5000
     8.182000    62.080002    42.544998    14.880000     2.597000    26.096001
   202.384003   -22.416103                                                    
 5499.0000
     8.252000    64.264999    49.231998    12.926000     2.618000    23.933001
   168.992996   -21.679827                                                    
 5499.5000
     8.294000    66.449997    59.243999    10.833000     2.653000    16.235001
    83.939003   -20.440460                                                    
 5500.0000
     8.336000    74.306999    80.658997     9.240000     2.681000    11.767000
    41.692001   -20.149485                                                    
 5500.5000
     8.366000    82.165001   100.024002     7.881000     2.668000     7.513000
    19.945000   -19.859188                                                    
 5501.0000
     8.359000    84.959000   113.007004     6.456000     2.624000     6.361000
     9.542000   -19.531500                                                    
 5501.5000
     8.352000    85.555000   120.869003     5.288000     2.629000     5.386000
     9.881000   -19.964563                                                    
 5502.0000
     8.344000    86.151001   113.977997     4.806000     2.634000     4.850000
    10.636000   -20.834093                                                    
 5502.5000
     8.334000    85.241997   113.795998     4.548000     2.640000     4.424000
    10.028000   -21.703621                                                    
 5503.0000
     8.296000    84.333000   111.691002     5.120000     2.661000     5.269000
     9.455000   -23.007572                                                    
 5503.5000
     8.192000    70.941002   101.247002     5.763000     2.666000     6.275000
     8.238000   -24.581427                                                    
