~VERSION INFORMATION
 VERS.                 2.0:   CWLS Log Ascii Standard    
 WRAP.                 YES:   Multiple Lines per Depth   
~WELL INFORMATION
#MNEM.UNIT              DATA                DESCRIPTION OF MNEMONIC  
#---------              ----                -----------------------  
 STRT  .FT         4544.0000                :Top Depth  
 STOP  .FT         5750.0000                :Bottom Depth  
 STEP  .FT             .5000                :Increment  
 NULL  .          -99999.000                :Null Value  
 COMP  .  GULF OIL CORPORATION              :Company   
 FLD   .  DEES NORTHEAST                    :Field  
 STAT  .  TEXAS                             :State  
 SRVC  .  SCHLUMBERGER                      :Service Company  
 WELL  .  B YATES 11                        :Well  
 UWI   .  422373031500                      :Unique Well ID  
~PARAMETER INFORMATION
#MNEM.UNIT        Value       Description                
#---------    -------------   -------------------------- 
 RUN   .                 1:   Run Number                 
 DATUM .FT        984.0000:   Datum                      
 AMST  .DEG.F      80.0000:   Annual Mean Surface Temp.  
 BHT   .DEG.F     127.0000:   Bottom Hole Temperature    
 TD    .FT       5750.0000:   Loggers Total Depth        
 BITSIZ.IN          7.8750:   Bit Size                   
 MW    .LB/USGAL    9.5000:   Mud Weight                 
 RM    .OHM-M       3.4200:   Mud Resistivity            
 RMMT  .DEG.F      78.0000:   Mud Resistivity Meas. Temp.
 RMF   .OHM-M       2.9000:   Mud Filtrate Resistivity   
 RMFMT .DEG.F      78.0000:   Mud Filtrate Res.Meas.Temp.
 SALFM .PPM      150000.00:   Formation Water Salinity   
~CURVE INFORMATION
#MNEM.UNIT       API Code     Curve Description          
#---------    -------------   -------------------------- 
 DEPTH .FT                    : Depth                                   
 CALI  .INS                   : Caliper                                 
 DLT   .US/FT                 : Borehole Compensated Sonic Travel Time  
 GR    .API                   : Gamma Ray                               
 RILD  .OHMM                  : Deep Induction Resistivity              
 RHOB  .G/CC                  : Formation Density Compensated           
 RILM  .OHMM                  : Medium Induction Resistivity            
 RLL8  .OHMM                  : Laterlog 8 Resistivity                 
 SP    .MV                    : Spontaneous Potential                   
~A Log Data Section - Number of Curves =     9
# ...
 5648.0000
     8.848000    66.061996    77.968002    15.293000     2.680000    17.396999
    29.186001   -30.591982                                                    
 5648.5000
     8.859000    64.491997    76.803001    14.367000     2.641000    16.662001
    30.312000   -30.916948                                                    
 5649.0000
     8.874000    65.643997    75.848000    14.223000     2.642000    15.958000
    31.481001   -31.294266                                                    
 5649.5000
     8.876000    66.796997    91.967003    14.081000     2.649000    14.799000
    41.424999   -31.833389                                                    
 5650.0000
     8.877000    69.245003    98.205002    13.826000     2.625000    13.624000
    21.868999   -33.186287                                                    
 5650.5000
     8.877000    71.693001   103.582001    14.953000     2.607000    15.500000
    17.583000   -36.824848                                                    
 5651.0000
     8.878000    69.508003    95.684998    16.172001     2.590000    16.686001
    14.137000   -40.791092                                                    
 5651.5000
     8.886000    67.321999    72.559998    18.569000     2.599000    17.962999
    28.834999   -44.917782                                                    
 5652.0000
     8.895000    65.137001    49.743000    21.320999     2.608000    20.287001
    52.562000   -47.307457                                                    
 5652.5000
     8.904000    67.914001    39.605000    25.825001     2.601000    22.910999
    95.811996   -50.131554                                                    
 5653.0000
     8.902000    70.690002    39.193001    31.278999     2.613000    30.260000
    82.857002   -50.918823                                                    
 5653.5000
     8.901000    63.477001    35.685001    37.675999     2.601000    39.091000
    96.462997   -51.706085                                                    
 5654.0000
     8.900000    62.737000    34.945999    45.382000     2.607000    50.500000
   112.302002   -53.058987                                                    
 5654.5000
     8.899000    63.318001    34.785999    60.830002     2.556000    57.771999
   128.710007   -53.377159                                                    
 5655.0000
     8.898000    63.900002    38.019001    70.109001     2.564000    66.092003
   103.776001   -53.782349                                                    
 5655.5000
     8.897000    64.481003    39.784000    63.948002     2.571000    69.346001
    83.672997   -54.188221                                                    
 5656.0000
     8.897000    64.098999    40.696999    58.328999     2.571000    67.650002
    90.413002   -54.592731                                                    
 5656.5000
     8.902000    64.074997    41.165001    57.058998     2.584000    65.996002
    95.209999   -54.996559                                                    
 5657.0000
     8.906000    63.877998    40.422001    55.817001     2.594000    67.480003
   100.262001   -55.127769                                                    
 5657.5000
     8.911000    63.681000    40.666000    57.813999     2.596000    69.443001
    89.950996   -55.259663                                                    
 5658.0000
     8.915000    62.666000    40.376999    59.882000     2.615000    71.463997
    87.029999   -55.229748                                                    
 5658.5000
     8.915000    61.651001    39.824001    61.116001     2.614000    72.936996
    94.472000   -55.199837                                                    
 5659.0000
     8.916000    60.570000    38.868999    62.374001     2.624000    69.855003
   102.550003   -54.869427                                                    
 5659.5000
     8.915000    59.490002    38.133999    61.980999     2.642000    66.903000
   119.722000   -54.539700                                                    
 5660.0000
     8.911000    60.223999    38.464001    61.589001     2.628000    66.356003
    95.293999   -54.237167                                                    
 5660.5000
     8.906000    60.959000    39.924999    60.582001     2.621000    65.815002
    87.723000   -53.934635                                                    
 5661.0000
     8.902000    61.215000    41.535000    59.591000     2.613000    66.925003
    80.752998   -52.512386                                                    
 5661.5000
     8.822000    61.472000    42.893002    55.882999     2.598000    68.054001
    79.730003   -52.073887                                                    
 5662.0000
     8.642000    62.148998    42.827000    53.277000     2.591000    68.567001
    85.525002   -51.636059                                                    
 5662.5000
     8.600000    62.826000    41.778999    52.213001     2.585000    63.997002
    90.058998   -50.055408                                                    
 5663.0000
     8.717000    63.502998    43.090000    40.911999     2.589000    59.733002
    99.121002   -48.474758                                                    
 5663.5000
     8.804000    64.863998    46.627998    32.056999     2.574000    56.009998
    78.896004   -46.893425                                                    
 5664.0000
     8.861000    64.733002    48.334999    25.561001     2.540000    43.363998
    67.721001   -44.606411                                                    
 5664.5000
     8.871000    64.601997    56.134998    20.381001     2.544000    32.004002
    70.271004   -42.320076                                                    
 5665.0000
     8.841000    64.470001    73.944000    14.102000     2.567000    16.986000
    68.867996   -38.973175                                                    
 5665.5000
     8.869000    67.921997    94.638000     8.237000     2.597000    12.216000
    47.916000   -35.626949                                                    
 5666.0000
     8.936000    75.595001   119.210999     7.639000     2.641000     7.652000
    33.338001   -31.269112                                                    
 5666.5000
     8.941000    83.267998   146.205002     7.083000     2.639000     6.158000
    16.375999   -27.566648                                                    
 5667.0000
     8.909000    90.924004   149.054993     6.778000     2.624000     5.700000
     8.044000   -26.886120                                                    
 5667.5000
     8.890000    86.182999   135.882996     6.485000     2.637000     6.239000
     6.930000   -26.205589                                                    
 5668.0000
     8.877000    81.441002   121.153999     6.957000     2.659000     7.152000
    12.405000   -25.384331                                                    
 5668.5000
     8.865000    74.197998   106.425003     7.692000     2.669000     7.678000
    22.492001   -25.190573                                                    
 5669.0000
     8.852000    66.955002    91.709000     8.505000     2.685000     8.242000
    40.780998   -24.998175                                                    
 5669.5000
     8.811000    62.523998    91.719002    10.113000     2.702000    10.928000
    38.241001   -25.429878                                                    
 5670.0000
     8.760000    58.094002    87.690002    12.026000     2.685000    14.648000
    49.404999   -25.862265                                                    
 5670.5000
     8.795000    43.474998    81.132004    18.889000     2.687000    23.605000
    63.827000   -27.540133                                                    
 5671.0000
     8.850000    55.860001    74.485001    25.886000     2.697000    34.662998
   112.996002   -28.297487                                                    
 5671.5000
     8.863000    53.327999    63.695000    35.473999     2.715000    50.902000
   200.042007   -29.055519                                                    
