~VERSION INFORMATION
 VERS.                 2.0:   CWLS Log Ascii Standard    
 WRAP.                 YES:   Multiple Lines per Depth   
~WELL INFORMATION
#MNEM.UNIT              DATA                DESCRIPTION OF MNEMONIC  
#---------              ----                -----------------------  
 STRT  .FT         4544.0000                :Top Depth  
 STOP  .FT         5750.0000                :Bottom Depth  
 STEP  .FT             .5000                :Increment  
 NULL  .          -99999.000                :Null Value  
 COMP  .  GULF OIL CORPORATION              :Company   
 FLD   .  DEES NORTHEAST                    :Field  
 STAT  .  TEXAS                             :State  
 SRVC  .  SCHLUMBERGER                      :Service Company  
 WELL  .  B YATES 11                        :Well  
 UWI   .  422373031500                      :Unique Well ID  
~PARAMETER INFORMATION
#MNEM.UNIT        Value       Description                
#---------    -------------   -------------------------- 
 RUN   .                 1:   Run Number                 
 DATUM .FT        984.0000:   Datum                      
 AMST  .DEG.F      80.0000:   Annual Mean Surface Temp.  
 BHT   .DEG.F     127.0000:   Bottom Hole Temperature    
 TD    .FT       5750.0000:   Loggers Total Depth        
 BITSIZ.IN          7.8750:   Bit Size                   
 MW    .LB/USGAL    9.5000:   Mud Weight                 
 RM    .OHM-M       3.4200:   Mud Resistivity            
 RMMT  .DEG.F      78.0000:   Mud Resistivity Meas. Temp.
 RMF   .OHM-M       2.9000:   Mud Filtrate Resistivity   
 RMFMT .DEG.F      78.0000:   Mud Filtrate Res.Meas.Temp.
 SALFM .PPM      150000.00:   Formation Water Salinity   
~CURVE INFORMATION
#MNEM.UNIT       API Code     Curve Description          
#---------    -------------   -------------------------- 
 DEPTH .FT                    : Depth                                   
 CALI  .INS                   : Caliper                                 
 DLT   .US/FT                 : Borehole Compensated Sonic Travel Time  
 GR    .API                   : Gamma Ray                               
 RILD  .OHMM                  : Deep Induction Resistivity              
 RHOB  .G/CC                  : Formation Density Compensated           
 RILM  .OHMM                  : Medium Induction Resistivity            
 RLL8  .OHMM                  : Laterlog 8 Resistivity                 
 SP    .MV                    : Spontaneous Potential                   
~A Log Data Section - Number of Curves =     9
# ...
 5552.0000
     8.405000    85.199997   112.628998     3.401000     2.601000     3.563000
     6.052000   -17.710180                                                    
 5552.5000
     8.398000    86.267998   106.706001     3.378000     2.587000     3.524000
     5.748000   -17.547018                                                    
 5553.0000
     8.391000    87.334999   107.947998     3.348000     2.605000     3.524000
     5.531000   -17.384533                                                    
 5553.5000
     8.328000    87.142998   112.478996     3.317000     2.609000     3.525000
     5.639000   -17.221369                                                    
 5554.0000
     8.238000    86.950996   112.918999     3.332000     2.598000     3.561000
     5.749000   -16.812099                                                    
 5554.5000
     8.256000    86.806999   111.333000     3.348000     2.609000     3.597000
     5.665000   -16.403509                                                    
 5555.0000
     8.182000    86.662003   109.649002     3.379000     2.608000     3.639000
     5.582000   -15.912658                                                    
 5555.5000
     8.171000    86.517998   109.316002     3.410000     2.605000     3.682000
     5.878000   -15.778728                                                    
 5556.0000
     8.233000    86.516998   110.289001     3.442000     2.608000     3.725000
     5.916000   -15.643437                                                    
 5556.5000
     8.213000    86.031998   111.569000     3.478000     2.596000     3.711000
     5.954000   -15.478913                                                    
 5557.0000
     8.234000    85.546997   110.435997     3.514000     2.594000     3.737000
     5.932000   -16.130209                                                    
 5557.5000
     8.304000    86.023003   109.430000     3.551000     2.601000     3.762000
     5.998000   -16.321247                                                    
 5558.0000
     8.348000    85.982002   108.205002     3.584000     2.613000     3.788000
     5.922000   -16.512285                                                    
 5558.5000
     8.377000    85.941002   106.322998     3.617000     2.610000     3.809000
     5.988000   -16.781506                                                    
 5559.0000
     8.382000    85.901001   105.722000     3.651000     2.614000     3.830000
     6.054000   -16.591148                                                    
 5559.5000
     8.372000    85.583000   105.927002     3.661000     2.615000     3.879000
     6.116000   -16.400110                                                    
 5560.0000
     8.363000    85.264999   107.481003     3.671000     2.607000     3.865000
     6.178000   -16.345722                                                    
 5560.5000
     8.353000    85.150002   108.297997     3.668000     2.607000     3.851000
     6.156000   -16.482372                                                    
 5561.0000
     8.344000    85.036003   108.026001     3.665000     2.612000     3.873000
     6.219000   -16.617662                                                    
 5561.5000
     8.336000    85.058998   109.906998     3.696000     2.609000     3.894000
     6.282000   -16.427305                                                    
 5562.0000
     8.328000    85.082001   113.129997     3.728000     2.614000     3.901000
     6.207000   -16.236946                                                    
 5562.5000
     8.321000    85.355003   114.438004     3.761000     2.622000     3.905000
     6.134000   -16.046587                                                    
 5563.0000
     8.313000    85.628998   114.876999     3.785000     2.624000     3.909000
     6.294000   -15.854870                                                    
 5563.5000
     8.306000    84.766998   113.387001     3.810000     2.614000     3.938000
     6.311000   -15.665193                                                    
 5564.0000
     8.298000    84.292999   111.514000     3.798000     2.595000     3.967000
     6.329000   -15.475514                                                    
 5564.5000
     8.291000    83.818001   110.705002     3.786000     2.615000     4.004000
     6.542000   -15.149185                                                    
 5565.0000
     8.283000    83.343002   109.094002     3.775000     2.628000     4.041000
     6.524000   -14.822858                                                    
 5565.5000
     8.276000    77.848999   106.820999     3.751000     2.612000     4.022000
     6.507000   -15.146466                                                    
 5566.0000
     8.202000    81.400002   104.551003     3.727000     2.595000     4.004000
     6.424000   -15.364699                                                    
 5566.5000
     8.050000    84.950996   104.089996     3.757000     2.603000     4.011000
     6.341000   -15.582931                                                    
 5567.0000
     7.876000    84.777000   105.217003     3.787000     2.626000     4.012000
     6.330000   -15.445601                                                    
 5567.5000
     7.860000    84.602997   105.121002     3.817000     2.626000     4.012000
     6.400000   -15.308950                                                    
 5568.0000
     7.988000    84.429001   103.903999     3.846000     2.616000     4.012000
     6.472000   -15.498629                                                    
 5568.5000
     8.115000    84.254997   102.685997     3.929000     2.610000     4.064000
     6.598000   -15.688987                                                    
 5569.0000
     8.277000    84.594002   104.253998     4.014000     2.621000     4.139000
     6.727000   -15.905859                                                    
 5569.5000
     8.379000    84.931999   106.382004     4.102000     2.624000     4.216000
     6.556000   -15.852151                                                    
 5570.0000
     8.387000    84.309998   106.348000     4.173000     2.610000     4.295000
     6.389000   -15.798443                                                    
 5570.5000
     8.395000    83.689003   107.175003     4.245000     2.602000     4.401000
     6.764000   -15.633920                                                    
 5571.0000
     8.403000    82.487000   107.240997     4.319000     2.614000     4.511000
     7.162000   -15.196774                                                    
 5571.5000
     8.406000    81.286003   105.538002     4.375000     2.645000     4.623000
     7.582000   -15.170261                                                    
 5572.0000
     8.403000    81.362999   103.308998     4.432000     2.655000     4.779000
     7.723000   -15.143747                                                    
 5572.5000
     8.395000    81.439003   100.528000     4.489000     2.651000     4.841000
     7.867000   -15.905859                                                    
 5573.0000
     8.382000    80.346001    97.777000     4.547000     2.653000     4.903000
     7.583000   -16.666611                                                    
 5573.5000
     8.369000    79.251999    97.003998     4.252000     2.631000     4.770000
     8.336000   -17.860428                                                    
 5574.0000
     8.369000    79.944000    98.582001     3.976000     2.610000     4.343000
     9.165000   -18.132368                                                    
 5574.5000
     8.386000    80.635002    97.166000     3.840000     2.625000     3.969000
     6.930000   -18.404308                                                    
 5575.0000
     8.402000    83.144997    95.182999     3.708000     2.627000     3.893000
     6.391000   -18.593306                                                    
 5575.5000
     8.407000    85.655998    97.594002     3.664000     2.613000     3.819000
     5.894000   -18.783665                                                    
