~VERSION INFORMATION
 VERS.                 2.0:   CWLS Log Ascii Standard    
 WRAP.                 YES:   Multiple Lines per Depth   
~WELL INFORMATION
#MNEM.UNIT              DATA                DESCRIPTION OF MNEMONIC  
#---------              ----                -----------------------  
 STRT  .FT         4544.0000                :Top Depth  
 STOP  .FT         5750.0000                :Bottom Depth  
 STEP  .FT             .5000                :Increment  
 NULL  .          -99999.000                :Null Value  
 COMP  .  GULF OIL CORPORATION              :Company   
 FLD   .  DEES NORTHEAST                    :Field  
 STAT  .  TEXAS                             :State  
 SRVC  .  SCHLUMBERGER                      :Service Company  
 WELL  .  B YATES 11                        :Well  
 UWI   .  422373031500                      :Unique Well ID  
~PARAMETER INFORMATION
#MNEM.UNIT        Value       Description                
#---------    -------------   -------------------------- 
 RUN   .                 1:   Run Number                 
 DATUM .FT        984.0000:   Datum                      
 AMST  .DEG.F      80.0000:   Annual Mean Surface Temp.  
 BHT   .DEG.F     127.0000:   Bottom Hole Temperature    
 TD    .FT       5750.0000:   Loggers Total Depth        
 BITSIZ.IN          7.8750:   Bit Size                   
 MW    .LB/USGAL    9.5000:   Mud Weight                 
 RM    .OHM-M       3.4200:   Mud Resistivity            
 RMMT  .DEG.F      78.0000:   Mud Resistivity Meas. Temp.
 RMF   .OHM-M       2.9000:   Mud Filtrate Resistivity   
 RMFMT .DEG.F      78.0000:   Mud Filtrate Res.Meas.Temp.
 SALFM .PPM      150000.00:   Formation Water Salinity   
~CURVE INFORMATION
#MNEM.UNIT       API Code     Curve Description          
#---------    -------------   -------------------------- 
 DEPTH .FT                    : Depth                                   
 CALI  .INS                   : Caliper                                 
 DLT   .US/FT                 : Borehole Compensated Sonic Travel Time  
 GR    .API                   : Gamma Ray                               
 RILD  .OHMM                  : Deep Induction Resistivity              
 RHOB  .G/CC                  : Formation Density Compensated           
 RILM  .OHMM                  : Medium Induction Resistivity            
 RLL8  .OHMM                  : Laterlog 8 Resistivity                 
 SP    .MV                    : Spontaneous Potential                   
~A Log Data Section - Number of Curves =     9
# ...
 4616.0000
     9.905000    87.555000   137.688004     4.140000     2.643000     4.233000
     6.002000   -23.268637                                                    
 4616.5000
     9.996000    87.387001   136.813004     4.163000     2.633000     4.236000
     6.058000   -23.248240                                                    
 4617.0000
    10.089000    87.218002   134.860001     4.140000     2.640000     4.240000
     6.114000   -23.315546                                                    
 4617.5000
    10.012000    87.485001   132.893997     4.121000     2.633000     4.236000
     6.273000   -22.847809                                                    
 4618.0000
     9.933000    87.751999   134.119003     4.102000     2.660000     4.233000
     6.215000   -22.610540                                                    
 4618.5000
     9.996000    88.013000   135.378998     4.080000     2.673000     4.214000
     6.159000   -22.374632                                                    
 4619.0000
     9.848000    88.275002   132.679001     4.054000     2.640000     4.196000
     6.063000   -22.058502                                                    
 4619.5000
     9.682000    88.177002   132.901993     4.028000     2.663000     4.178000
     5.969000   -21.742373                                                    
 4620.0000
     9.732000    88.210999   133.147995     3.991000     2.685000     4.178000
     5.936000   -21.377293                                                    
 4620.5000
     9.782000    88.245003   133.485992     3.980000     2.671000     4.178000
     5.893000   -21.117590                                                    
 4621.0000
     9.816000    88.398003   135.139008     3.969000     2.668000     4.132000
     5.849000   -21.025129                                                    
 4621.5000
     9.850000    89.663002   134.608002     3.980000     2.653000     4.114000
     5.860000   -21.148184                                                    
 4622.0000
     9.884000    91.393997   134.070999     3.991000     2.661000     4.095000
     5.911000   -21.019691                                                    
 4622.5000
     9.917000    93.125999   135.912003     4.005000     2.669000     4.072000
     5.962000   -20.890520                                                    
 4623.0000
     9.629000    88.608002   134.190994     4.020000     2.602000     4.080000
     6.013000   -20.853807                                                    
 4623.5000
     9.341000    89.371002   132.477997     4.070000     2.597000     4.148000
     6.002000   -20.458136                                                    
 4624.0000
     9.252000    89.285004   134.371994     4.120000     2.581000     4.217000
     6.002000   -20.061783                                                    
 4624.5000
     9.242000    89.821999   132.511002     4.171000     2.501000     4.327000
     6.002000   -19.698063                                                    
 4625.0000
     9.235000    88.499001   130.673996     4.335000     2.545000     4.440000
     6.342000   -19.600843                                                    
 4625.5000
     9.610000    87.177002   132.518005     4.464000     2.589000     4.640000
     6.702000   -19.504305                                                    
 4626.0000
     9.981000    87.503998   134.378006     4.497000     2.609000     4.709000
     7.069000   -19.243923                                                    
 4626.5000
    10.064000    87.831001   138.496002     4.431000     2.628000     4.700000
     7.456000   -19.255482                                                    
 4627.0000
    10.144000    88.903999   139.139999     4.339000     2.648000     4.543000
     7.907000   -19.810238                                                    
 4627.5000
    10.036000    89.977997   139.804001     4.248000     2.642000     4.391000
     7.476000   -20.803499                                                    
 4628.0000
     9.929000    89.223999   142.048996     4.129000     2.636000     4.170000
     7.068000   -21.405848                                                    
 4628.5000
     9.989000    89.622002   136.675995     4.013000     2.656000     4.072000
     6.471000   -21.696823                                                    
 4629.0000
    10.048000    90.021004   134.102997     3.853000     2.667000     3.976000
     6.013000   -21.220926                                                    
 4629.5000
     9.966000    90.222000   136.335007     3.762000     2.668000     3.903000
     5.648000   -21.232485                                                    
 4630.0000
     9.913000    90.262001   136.003006     3.674000     2.683000     3.825000
     5.566000   -21.243362                                                    
 4630.5000
     9.860000    90.303001   137.740005     3.567000     2.656000     3.708000
     5.569000   -21.581926                                                    
 4631.0000
     9.883000    90.061996   136.987000     3.574000     2.643000     3.667000
     5.573000   -21.537739                                                    
 4631.5000
     9.970000    89.882004   136.313004     3.580000     2.630000     3.670000
     5.576000   -21.492868                                                    
 4632.0000
     9.957000    89.700996   139.539001     3.638000     2.613000     3.674000
     5.566000   -21.511904                                                    
 4632.5000
     9.943000    89.561996   139.854004     3.696000     2.602000     3.745000
     5.454000   -21.331062                                                    
 4633.0000
     9.926000    89.422997   141.882996     3.755000     2.591000     3.818000
     5.586000   -21.150904                                                    
 4633.5000
     9.774000    89.378998   142.653000     3.839000     2.618000     3.928000
     5.721000   -20.299730                                                    
 4634.0000
     9.721000    89.335999   143.300995     3.925000     2.638000     4.042000
     5.892000   -20.311287                                                    
 4634.5000
     9.665000    89.275002   139.444000     4.012000     2.649000     4.147000
     5.979000   -19.994478                                                    
 4635.0000
     9.470000    89.212997   138.399002     4.117000     2.659000     4.255000
     6.012000   -19.678347                                                    
 4635.5000
     9.441000    89.152000   137.354996     4.224000     2.633000     4.342000
     5.924000   -19.473713                                                    
 4636.0000
     9.415000    88.762001   136.362000     4.303000     2.609000     4.393000
     5.838000   -19.325504                                                    
 4636.5000
     9.501000    88.372002   137.085007     4.382000     2.615000     4.445000
     5.979000   -19.337063                                                    
 4637.0000
     9.729000    88.764999   137.737000     4.427000     2.620000     4.497000
     6.124000   -19.020252                                                    
 4637.5000
     9.951000    89.156998   136.242004     4.472000     2.549000     4.513000
     6.376000   -19.039288                                                    
 4638.0000
     9.979000    89.501999   134.744995     4.431000     2.583000     4.555000
     6.639000   -19.594046                                                    
 4638.5000
    10.007000    89.153999   133.227005     4.303000     2.617000     4.303000
     6.901000   -21.019012                                                    
 4639.0000
    10.035000    89.474998   131.082001     4.178000     2.636000     4.209000
     7.172000   -22.008873                                                    
 4639.5000
    10.065000    89.795998   129.242004     4.053000     2.579000     4.117000
     6.901000   -22.998055                                                    
