~VERSION INFORMATION
 VERS.                 2.0:   CWLS Log Ascii Standard    
 WRAP.                 YES:   Multiple Lines per Depth   
~WELL INFORMATION
#MNEM.UNIT              DATA                DESCRIPTION OF MNEMONIC  
#---------              ----                -----------------------  
 STRT  .FT         4544.0000                :Top Depth  
 STOP  .FT         5750.0000                :Bottom Depth  
 STEP  .FT             .5000                :Increment  
 NULL  .          -99999.000                :Null Value  
 COMP  .  GULF OIL CORPORATION              :Company   
 FLD   .  DEES NORTHEAST                    :Field  
 STAT  .  TEXAS                             :State  
 SRVC  .  SCHLUMBERGER                      :Service Company  
 WELL  .  B YATES 11                        :Well  
 UWI   .  422373031500                      :Unique Well ID  
~PARAMETER INFORMATION
#MNEM.UNIT        Value       Description                
#---------    -------------   -------------------------- 
 RUN   .                 1:   Run Number                 
 DATUM .FT        984.0000:   Datum                      
 AMST  .DEG.F      80.0000:   Annual Mean Surface Temp.  
 BHT   .DEG.F     127.0000:   Bottom Hole Temperature    
 TD    .FT       5750.0000:   Loggers Total Depth        
 BITSIZ.IN          7.8750:   Bit Size                   
 MW    .LB/USGAL    9.5000:   Mud Weight                 
 RM    .OHM-M       3.4200:   Mud Resistivity            
 RMMT  .DEG.F      78.0000:   Mud Resistivity Meas. Temp.
 RMF   .OHM-M       2.9000:   Mud Filtrate Resistivity   
 RMFMT .DEG.F      78.0000:   Mud Filtrate Res.Meas.Temp.
 SALFM .PPM      150000.00:   Formation Water Salinity   
~CURVE INFORMATION
#MNEM.UNIT       API Code     Curve Description          
#---------    -------------   -------------------------- 
 DEPTH .FT                    : Depth                                   
 CALI  .INS                   : Caliper                                 
 DLT   .US/FT                 : Borehole Compensated Sonic Travel Time  
 GR    .API                   : Gamma Ray                               
 RILD  .OHMM                  : Deep Induction Resistivity              
 RHOB  .G/CC                  : Formation Density Compensated           
 RILM  .OHMM                  : Medium Induction Resistivity            
 RLL8  .OHMM                  : Laterlog 8 Resistivity                 
 SP    .MV                    : Spontaneous Potential                   
~A Log Data Section - Number of Curves =     9
# ...
 5024.0000
     9.412000    85.410004   141.401993     5.147000     2.604000     5.213000
     7.670000   -24.826172                                                    
 5024.5000
     9.456000    86.664001   144.457993     5.196000     2.564000     5.322000
     7.195000   -24.667088                                                    
 5025.0000
     9.473000    86.209999   139.136002     5.246000     2.550000     5.354000
     7.361000   -24.508003                                                    
 5025.5000
     9.544000    86.502998   135.619003     5.297000     2.534000     5.298000
     7.418000   -23.697622                                                    
 5026.0000
     9.685000    86.794998   135.427994     5.208000     2.542000     5.271000
     7.476000   -23.756769                                                    
 5026.5000
     9.590000    87.403999   135.007996     5.120000     2.538000     5.243000
     7.250000   -23.434519                                                    
 5027.0000
     9.606000    88.013000   134.158997     5.025000     2.513000     5.170000
     7.247000   -23.112270                                                    
 5027.5000
     9.732000    87.667000   134.182007     4.931000     2.505000     5.089000
     7.244000   -22.030628                                                    
 5028.0000
     9.672000    87.320999   134.455994     4.889000     2.522000     5.081000
     6.972000   -20.975500                                                    
 5028.5000
     9.471000    86.974998   134.235992     4.950000     2.516000     5.073000
     6.711000   -19.920374                                                    
 5029.0000
     9.000000    87.584000   137.464005     5.011000     2.476000     5.219000
     6.544000   -19.163700                                                    
 5029.5000
     8.681000    88.193001   139.554993     5.069000     2.464000     5.432000
     6.450000   -18.406347                                                    
 5030.0000
     8.640000    89.327003   141.029999     5.128000     2.486000     5.653000
     6.358000   -16.781506                                                    
 5030.5000
     8.573000    92.002998   143.813004     5.206000     2.510000     5.934000
     8.635000   -15.590408                                                    
 5031.0000
     8.549000    94.678001   150.865005     5.305000     2.519000     6.007000
     9.331000   -15.432004                                                    
 5031.5000
     8.587000    97.233002   153.699997     5.406000     2.508000     6.081000
    10.083000   -15.516985                                                    
 5032.0000
     8.580000    96.862999   151.345993     5.550000     2.517000     5.898000
    11.061000   -15.601966                                                    
 5032.5000
     8.637000    96.492996   151.380997     5.699000     2.518000     5.894000
    11.190000   -15.823597                                                    
 5033.0000
     8.732000    95.084000   152.438995     5.758000     2.502000     5.891000
    10.911000   -15.991520                                                    
 5033.5000
     8.643000    93.675003   153.477005     5.819000     2.493000     5.949000
    10.561000   -16.104376                                                    
 5034.0000
     8.570000    92.152000   151.367996     5.812000     2.444000     6.019000
    10.222000   -16.216551                                                    
 5034.5000
     8.572000    90.629997   143.059998     5.666000     2.339000     6.054000
    11.461000   -16.818218                                                    
 5035.0000
     8.893000   100.198997   136.154999     5.525000     2.275000     5.807000
    12.851000   -17.801281                                                    
 5035.5000
     9.414000   104.044998   131.891006     5.517000     2.210000     5.788000
    15.143000   -18.186077                                                    
 5036.0000
     9.058000    99.801003   126.849998     5.624000     2.187000     5.768000
    12.815000   -18.135767                                                    
 5036.5000
     8.759000    94.314003   123.151001     5.662000     2.246000     6.021000
    10.845000   -17.704742                                                    
 5037.0000
     8.711000    88.827003   123.612000     5.701000     2.323000     6.192000
    10.635000   -17.736015                                                    
 5037.5000
     8.938000    85.424004   120.526001     5.693000     2.435000     6.082000
    13.293000   -17.767288                                                    
 5038.0000
     9.174000    82.019997   117.439003     5.684000     2.555000     5.941000
    14.501000   -18.097696                                                    
 5038.5000
     9.410000    83.053001   117.646004     5.657000     2.640000     5.994000
    12.826000   -18.917595                                                    
 5039.0000
     9.564000    84.085999   123.699997     5.675000     2.615000     6.047000
    12.539000   -18.975382                                                    
 5039.5000
     9.551000    85.459999   127.797997     5.694000     2.582000     6.044000
    12.259000   -18.925074                                                    
 5040.0000
     9.596000    86.833000   130.042999     5.685000     2.536000     6.040000
    11.887000   -18.875444                                                    
 5040.5000
     9.661000    85.734001   128.416000     5.676000     2.512000     6.011000
    11.527000   -18.661970                                                    
 5041.0000
     9.508000    86.469002   126.788002     5.557000     2.542000     6.041000
    10.723000   -18.775507                                                    
 5041.5000
     9.364000    87.203003   126.121002     5.468000     2.545000     6.071000
     9.975000   -19.105234                                                    
 5042.0000
     9.291000    86.880997   127.487999     5.380000     2.499000     5.991000
     9.359000   -19.434961                                                    
 5042.5000
     9.332000    86.558998   127.457001     5.275000     2.537000     5.913000
     8.935000   -19.440399                                                    
 5043.0000
     9.374000    85.986000   126.872002     5.171000     2.576000     5.770000
     8.530000   -19.498188                                                    
 5043.5000
     9.358000    85.412003   130.598999     5.052000     2.614000     5.632000
     8.332000   -19.556654                                                    
 5044.0000
     9.264000    85.633003   131.735992     5.035000     2.631000     5.562000
     8.139000   -19.452637                                                    
 5044.5000
     9.273000    85.853996   131.335999     5.019000     2.612000     5.493000
     7.850000   -19.402328                                                    
 5045.0000
     9.283000    87.322998   129.792999     5.054000     2.621000     5.496000
     7.961000   -19.352020                                                    
 5045.5000
     9.293000    87.873001   126.601997     5.089000     2.645000     5.590000
     8.074000   -18.975382                                                    
 5046.0000
     9.262000    86.995003   125.242996     5.197000     2.659000     5.686000
     8.335000   -18.218710                                                    
 5046.5000
     9.105000    86.117996   123.781998     5.290000     2.656000     5.995000
     8.604000   -17.706783                                                    
 5047.0000
     8.863000    85.055000   124.440002     5.385000     2.649000     6.320000
     9.063000   -17.194855                                                    
 5047.5000
     8.652000    83.991997   129.929993     5.788000     2.622000     6.844000
     9.185000   -16.546957                                                    
