~VERSION INFORMATION
 VERS.                 2.0:   CWLS Log Ascii Standard    
 WRAP.                 YES:   Multiple Lines per Depth   
~WELL INFORMATION
#MNEM.UNIT              DATA                DESCRIPTION OF MNEMONIC  
#---------              ----                -----------------------  
 STRT  .FT         4544.0000                :Top Depth  
 STOP  .FT         5750.0000                :Bottom Depth  
 STEP  .FT             .5000                :Increment  
 NULL  .          -99999.000                :Null Value  
 COMP  .  GULF OIL CORPORATION              :Company   
 FLD   .  DEES NORTHEAST                    :Field  
 STAT  .  TEXAS                             :State  
 SRVC  .  SCHLUMBERGER                      :Service Company  
 WELL  .  B YATES 11                        :Well  
 UWI   .  422373031500                      :Unique Well ID  
~PARAMETER INFORMATION
#MNEM.UNIT        Value       Description                
#---------    -------------   -------------------------- 
 RUN   .                 1:   Run Number                 
 DATUM .FT        984.0000:   Datum                      
 AMST  .DEG.F      80.0000:   Annual Mean Surface Temp.  
 BHT   .DEG.F     127.0000:   Bottom Hole Temperature    
 TD    .FT       5750.0000:   Loggers Total Depth        
 BITSIZ.IN          7.8750:   Bit Size                   
 MW    .LB/USGAL    9.5000:   Mud Weight                 
 RM    .OHM-M       3.4200:   Mud Resistivity            
 RMMT  .DEG.F      78.0000:   Mud Resistivity Meas. Temp.
 RMF   .OHM-M       2.9000:   Mud Filtrate Resistivity   
 RMFMT .DEG.F      78.0000:   Mud Filtrate Res.Meas.Temp.
 SALFM .PPM      150000.00:   Formation Water Salinity   
~CURVE INFORMATION
#MNEM.UNIT       API Code     Curve Description          
#---------    -------------   -------------------------- 
 DEPTH .FT                    : Depth                                   
 CALI  .INS                   : Caliper                                 
 DLT   .US/FT                 : Borehole Compensated Sonic Travel Time  
 GR    .API                   : Gamma Ray                               
 RILD  .OHMM                  : Deep Induction Resistivity              
 RHOB  .G/CC                  : Formation Density Compensated           
 RILM  .OHMM                  : Medium Induction Resistivity            
 RLL8  .OHMM                  : Laterlog 8 Resistivity                 
 SP    .MV                    : Spontaneous Potential                   
~A Log Data Section - Number of Curves =     9
# ...
 5168.0000
     8.659000    85.716003   138.746002     4.364000     2.626000     4.515000
     6.576000   -16.418467                                                    
 5168.5000
     8.648000    86.103996   142.548004     4.351000     2.637000     4.545000
     6.535000   -16.645536                                                    
 5169.0000
     8.564000    86.491997   143.128006     4.338000     2.642000     4.575000
     6.561000   -16.873287                                                    
 5169.5000
     8.580000    86.202003   140.009003     4.311000     2.643000     4.636000
     6.897000   -16.937193                                                    
 5170.0000
     8.749000    85.911003   138.695999     4.284000     2.649000     4.612000
     7.250000   -17.492630                                                    
 5170.5000
     8.826000    85.621002   138.779007     4.317000     2.659000     4.592000
     7.538000   -18.158882                                                    
 5171.0000
     8.910000    84.403000   137.145996     4.351000     2.683000     4.571000
     7.012000   -18.167042                                                    
 5171.5000
     9.070000    84.481003   135.787994     4.372000     2.646000     4.615000
     6.522000   -18.175200                                                    
 5172.0000
     8.961000    84.558998   135.751007     4.393000     2.612000     4.651000
     6.602000   -17.971245                                                    
 5172.5000
     8.668000    83.771004   134.514008     4.370000     2.591000     4.660000
     6.683000   -17.547697                                                    
 5173.0000
     8.579000    84.285004   132.535004     4.326000     2.557000     4.670000
     6.709000   -17.394732                                                    
 5173.5000
     8.604000    83.688004   134.296997     4.282000     2.556000     4.628000
     6.735000   -17.321306                                                    
 5174.0000
     8.677000    84.117996   137.742996     4.238000     2.570000     4.587000
     7.225000   -17.247883                                                    
 5174.5000
     8.769000    83.563004   139.078003     4.177000     2.630000     4.466000
     7.430000   -17.531380                                                    
 5175.0000
     8.791000    83.008003   136.052002     4.117000     2.600000     4.349000
     7.106000   -17.485830                                                    
 5175.5000
     8.747000    83.127998   133.246002     3.877000     2.582000     4.234000
     6.796000   -16.897760                                                    
 5176.0000
     8.690000    83.247002   131.867004     3.804000     2.563000     4.116000
     6.500000   -16.856289                                                    
 5176.5000
     8.677000    84.309998   130.817993     3.734000     2.606000     4.002000
     6.142000   -17.001099                                                    
 5177.0000
     8.680000    85.372002   131.699005     3.664000     2.621000     3.951000
     6.121000   -17.145906                                                    
 5177.5000
     8.720000    85.647003   133.238007     3.559000     2.627000     3.902000
     6.100000   -17.156784                                                    
 5178.0000
     8.772000    86.684998   130.695007     3.511000     2.618000     3.776000
     6.102000   -17.439602                                                    
 5178.5000
     8.746000    87.097000   130.302994     3.464000     2.616000     3.735000
     5.981000   -17.669390                                                    
 5179.0000
     8.736000    87.509003   131.248993     3.621000     2.618000     3.830000
     5.862000   -17.789724                                                    
 5179.5000
     8.743000    88.536003   128.720993     3.778000     2.602000     3.927000
     5.726000   -17.474274                                                    
 5180.0000
     8.619000    89.563004   125.386002     4.143000     2.601000     4.346000
     5.817000   -17.103754                                                    
 5180.5000
     8.443000    88.935997   125.149002     4.662000     2.597000     4.810000
     5.910000   -16.949429                                                    
 5181.0000
     8.358000    88.309998   114.991997     5.901000     2.609000     6.168000
     7.906000   -17.287315                                                    
 5181.5000
     8.364000    84.299004    97.944000     7.187000     2.631000     7.141000
    10.770000   -17.594606                                                    
 5182.0000
     8.387000    78.801003    86.927002     8.251000     2.626000     8.266000
    17.847000   -17.901218                                                    
 5182.5000
     8.407000    73.302002    79.021004     9.474000     2.656000    11.159000
    29.573000   -18.404989                                                    
 5183.0000
     8.401000    67.804001    76.490997    11.358000     2.688000    12.788000
    31.431000   -18.549116                                                    
 5183.5000
     8.291000    63.243999    72.210999    13.616000     2.710000    14.655000
    27.312000   -18.693245                                                    
 5184.0000
     8.227000    62.803001    63.050999    18.552000     2.696000    20.041000
    23.733000   -19.362217                                                    
 5184.5000
     8.257000    62.361000    51.536999    23.872999     2.678000    25.041000
    68.723000   -19.698744                                                    
 5185.0000
     8.311000    59.365002    39.556000    26.275000     2.668000    29.445999
   198.996994   -19.787123                                                    
 5185.5000
     8.328000    58.094002    38.144001    27.218000     2.681000    31.879999
   147.216995   -19.876184                                                    
 5186.0000
     8.360000    56.823002    42.335999    24.808001     2.683000    31.827999
   103.829002   -19.886381                                                    
 5186.5000
     8.410000    57.665001    49.918999    22.612000     2.678000    28.351999
    73.228996   -19.572969                                                    
 5187.0000
     8.489000    58.507000    59.833000    18.409000     2.656000    18.445000
    51.646999   -18.931871                                                    
 5187.5000
     8.590000    58.776001    69.679001    12.983000     2.660000    15.735000
    34.537998   -18.642256                                                    
 5188.0000
     8.694000    59.043999    80.439003     8.941000     2.666000    13.423000
    22.798000   -18.353319                                                    
 5188.5000
     8.727000    61.932999    91.876999     6.751000     2.660000     8.861000
    15.048000   -18.226189                                                    
 5189.0000
     8.716000    66.594002   103.357002     5.681000     2.661000     6.046000
    11.001000   -18.099735                                                    
 5189.5000
     8.704000    71.254997   114.871002     4.987000     2.645000     4.986000
     8.043000   -17.731256                                                    
 5190.0000
     8.693000    76.872002   120.866997     4.533000     2.633000     4.689000
     7.204000   -17.685707                                                    
 5190.5000
     8.706000    82.487999   123.242996     4.120000     2.623000     4.410000
     7.259000   -17.640158                                                    
 5191.0000
     8.732000    85.806000   121.443001     3.801000     2.607000     4.194000
     7.314000   -17.515064                                                    
 5191.5000
     8.757000    87.012001   119.413002     3.494000     2.570000     3.988000
     6.779000   -17.389973                                                    
